{
"type": "FeatureCollection",
"name": "waypoints",
"crs": { "type": "name", "properties": { "name": "urn:ogc:def:crs:OGC:1.3:CRS84" } },
"features": [
{ "type": "Feature", "properties": { "name": "ВВА-14", "cmt": "id597: ВВА-14 CCCP-19172\nhttps:\/\/russianplanes.net\/id81551", "desc": "id597: ВВА-14 CCCP-19172\nhttps:\/\/russianplanes.net\/id81551" }, "geometry": { "type": "Point", "coordinates": [ 38.180922621454997, 55.833440495368997 ] } },
{ "type": "Feature", "properties": { "name": "Орленок", "cmt": "id1564: Орленок 26\nhttps:\/\/russianplanes.net\/id99176\nhttps:\/\/russianplanes.net\/reginfo\/145074", "desc": "id1564: Орленок 26\nhttps:\/\/russianplanes.net\/id99176\nhttps:\/\/russianplanes.net\/reginfo\/145074" }, "geometry": { "type": "Point", "coordinates": [ 37.456135817880998, 55.851610287474003 ] } },
{ "type": "Feature", "properties": { "name": "Туполев А-3", "cmt": "id5128: Туполев А-3 аэросани ()\nhttps:\/\/russianplanes.net\/id271156", "desc": "id5128: Туполев А-3 аэросани ()\nhttps:\/\/russianplanes.net\/id271156" }, "geometry": { "type": "Point", "coordinates": [ 38.289646804333003, 56.033280675392 ] } },
{ "type": "Feature", "properties": { "name": "НВА-10", "cmt": "id5384: НВА-10 ? ()\nhttps:\/\/russianplanes.net\/id177421", "desc": "id5384: НВА-10 ? ()\nhttps:\/\/russianplanes.net\/id177421" }, "geometry": { "type": "Point", "coordinates": [ 107.730852663519997, 51.851058659449997 ] } },
{ "type": "Feature", "properties": { "name": "Акваглайд", "cmt": "id5898: Акваглайд \nhttps:\/\/russianplanes.net\/id185160", "desc": "id5898: Акваглайд \nhttps:\/\/russianplanes.net\/id185160" }, "geometry": { "type": "Point", "coordinates": [ 44.036891162395001, 56.327650187393999 ] } },
{ "type": "Feature", "properties": { "name": "Волга-2 (экраноплан)", "cmt": "id6228: Волга-2 (экраноплан) 01\nhttps:\/\/russianplanes.net\/id205963", "desc": "id6228: Волга-2 (экраноплан) 01\nhttps:\/\/russianplanes.net\/id205963" }, "geometry": { "type": "Point", "coordinates": [ 44.024998247623003, 56.326239765669001 ] } },
{ "type": "Feature", "properties": { "name": "Ракета", "cmt": "id6291: Ракета Ракета-32\nhttps:\/\/russianplanes.net\/id207875\nhttps:\/\/russianplanes.net\/reginfo\/189636", "desc": "id6291: Ракета Ракета-32\nhttps:\/\/russianplanes.net\/id207875\nhttps:\/\/russianplanes.net\/reginfo\/189636" }, "geometry": { "type": "Point", "coordinates": [ 38.678985536097997, 58.093723236368 ] } },
{ "type": "Feature", "properties": { "name": "Ангара", "cmt": "id6292: Ангара Ангара\nhttps:\/\/russianplanes.net\/id208911", "desc": "id6292: Ангара Ангара\nhttps:\/\/russianplanes.net\/id208911" }, "geometry": { "type": "Point", "coordinates": [ 104.34391736984, 52.250111185735001 ] } },
{ "type": "Feature", "properties": { "name": "Лунь", "cmt": "id6293: Лунь Лунь\nhttps:\/\/russianplanes.net\/id208757", "desc": "id6293: Лунь Лунь\nhttps:\/\/russianplanes.net\/id208757" }, "geometry": { "type": "Point", "coordinates": [ 47.657124996184997, 42.881774139317002 ] } },
{ "type": "Feature", "properties": { "name": "ВБ-15", "cmt": "id6295: ВБ-15 МБКХ-5\nhttps:\/\/russianplanes.net\/id0", "desc": "id6295: ВБ-15 МБКХ-5\nhttps:\/\/russianplanes.net\/id0" }, "geometry": { "type": "Point", "coordinates": [ 92.838377952575996, 55.986835730994002 ] } },
{ "type": "Feature", "properties": { "name": "Спутник", "cmt": "id6296: Спутник Спутник\nhttps:\/\/russianplanes.net\/id0", "desc": "id6296: Спутник Спутник\nhttps:\/\/russianplanes.net\/id0" }, "geometry": { "type": "Point", "coordinates": [ 49.475265741347997, 53.472396555673001 ] } },
{ "type": "Feature", "properties": { "name": "Метеор", "cmt": "id6297: Метеор Метеор-193 ()\nhttps:\/\/russianplanes.net\/id245903\nhttps:\/\/russianplanes.net\/reginfo\/171930", "desc": "id6297: Метеор Метеор-193 ()\nhttps:\/\/russianplanes.net\/id245903\nhttps:\/\/russianplanes.net\/reginfo\/171930" }, "geometry": { "type": "Point", "coordinates": [ 49.071239233017003, 55.802462892438001 ] } },
{ "type": "Feature", "properties": { "name": "Метеор", "cmt": "id6298: Метеор Метеор-001\nhttps:\/\/russianplanes.net\/id291345\nhttps:\/\/russianplanes.net\/reginfo\/170835", "desc": "id6298: Метеор Метеор-001\nhttps:\/\/russianplanes.net\/id291345\nhttps:\/\/russianplanes.net\/reginfo\/170835" }, "geometry": { "type": "Point", "coordinates": [ 43.864041566848996, 56.344647291043003 ] } },
{ "type": "Feature", "properties": { "name": "Паллада", "cmt": "id6299: Паллада Аврора\nhttps:\/\/russianplanes.net\/id222902", "desc": "id6299: Паллада Аврора\nhttps:\/\/russianplanes.net\/id222902" }, "geometry": { "type": "Point", "coordinates": [ 30.337371826171999, 59.955504455899003 ] } },
{ "type": "Feature", "properties": { "name": "Пр. 68", "cmt": "id6300: Пр. 68 Михаил Кутузов\nhttps:\/\/russianplanes.net\/id233379", "desc": "id6300: Пр. 68 Михаил Кутузов\nhttps:\/\/russianplanes.net\/id233379" }, "geometry": { "type": "Point", "coordinates": [ 37.782003879546998, 44.721315310789997 ] } },
{ "type": "Feature", "properties": { "name": "123К", "cmt": "id6301: 123К 341\nhttps:\/\/russianplanes.net\/id217291", "desc": "id6301: 123К 341\nhttps:\/\/russianplanes.net\/id217291" }, "geometry": { "type": "Point", "coordinates": [ 37.783940434455999, 44.717713216349999 ] } },
{ "type": "Feature", "properties": { "name": "?", "cmt": "id6302: ? Леонид Красин\nhttps:\/\/russianplanes.net\/id209345", "desc": "id6302: ? Леонид Красин\nhttps:\/\/russianplanes.net\/id209345" }, "geometry": { "type": "Point", "coordinates": [ 30.268921852112001, 59.927866634642001 ] } },
{ "type": "Feature", "properties": { "name": "Пр. 613", "cmt": "id6303: Пр. 613 С-189\nhttps:\/\/russianplanes.net\/id209273", "desc": "id6303: Пр. 613 С-189\nhttps:\/\/russianplanes.net\/id209273" }, "geometry": { "type": "Point", "coordinates": [ 30.275766849518, 59.932194122030999 ] } },
{ "type": "Feature", "properties": { "name": "Костромич", "cmt": "id6488: Костромич 99\nhttps:\/\/russianplanes.net\/id212378", "desc": "id6488: Костромич 99\nhttps:\/\/russianplanes.net\/id212378" }, "geometry": { "type": "Point", "coordinates": [ 46.053217884969001, 51.545995785301002 ] } },
{ "type": "Feature", "properties": { "name": "?", "cmt": "id6508: ? Витязь\nhttps:\/\/russianplanes.net\/id0", "desc": "id6508: ? Витязь\nhttps:\/\/russianplanes.net\/id0" }, "geometry": { "type": "Point", "coordinates": [ 20.500252246856999, 54.706083791871002 ] } },
{ "type": "Feature", "properties": { "name": "?", "cmt": "id6509: ? Гото Предестинация\nhttps:\/\/russianplanes.net\/id231368", "desc": "id6509: ? Гото Предестинация\nhttps:\/\/russianplanes.net\/id231368" }, "geometry": { "type": "Point", "coordinates": [ 39.215966463089003, 51.655938212030001 ] } },
{ "type": "Feature", "properties": { "name": "1929", "cmt": "id6510: 1929 Виктор Пацаев ()\nhttps:\/\/russianplanes.net\/id209377", "desc": "id6510: 1929 Виктор Пацаев ()\nhttps:\/\/russianplanes.net\/id209377" }, "geometry": { "type": "Point", "coordinates": [ 20.497505664824999, 54.706282153303 ] } },
{ "type": "Feature", "properties": { "name": "?", "cmt": "id6511: ? Красный вымпел\nhttps:\/\/russianplanes.net\/id222827", "desc": "id6511: ? Красный вымпел\nhttps:\/\/russianplanes.net\/id222827" }, "geometry": { "type": "Point", "coordinates": [ 131.890617012979988, 43.11272833092 ] } },
{ "type": "Feature", "properties": { "name": "Проект 92", "cmt": "id6512: Проект 92 Ленин\nhttps:\/\/russianplanes.net\/id218745", "desc": "id6512: Проект 92 Ленин\nhttps:\/\/russianplanes.net\/id218745" }, "geometry": { "type": "Point", "coordinates": [ 33.059642314911002, 68.974756381058995 ] } },
{ "type": "Feature", "properties": { "name": "?", "cmt": "id6514: ? Святитель Николай\nhttps:\/\/russianplanes.net\/id221003", "desc": "id6514: ? Святитель Николай\nhttps:\/\/russianplanes.net\/id221003" }, "geometry": { "type": "Point", "coordinates": [ 92.894994020461994, 56.010612489872003 ] } },
{ "type": "Feature", "properties": { "name": "СРТ-300, СРТ-400", "cmt": "id6515: СРТ-300, СРТ-400 СРТ-129\nhttps:\/\/russianplanes.net\/id257611", "desc": "id6515: СРТ-300, СРТ-400 СРТ-129\nhttps:\/\/russianplanes.net\/id257611" }, "geometry": { "type": "Point", "coordinates": [ 20.504372119904001, 54.706120984713003 ] } },
{ "type": "Feature", "properties": { "name": "1143", "cmt": "id6516: 1143 Киев\nhttps:\/\/russianplanes.net\/id0", "desc": "id6516: 1143 Киев\nhttps:\/\/russianplanes.net\/id0" }, "geometry": { "type": "Point", "coordinates": [ 117.808547616, 39.155381127452998 ] } },
{ "type": "Feature", "properties": { "name": "1143", "cmt": "id6517: 1143 Минск\nhttps:\/\/russianplanes.net\/id0", "desc": "id6517: 1143 Минск\nhttps:\/\/russianplanes.net\/id0" }, "geometry": { "type": "Point", "coordinates": [ 114.236912727359993, 22.553781610661002 ] } },
{ "type": "Feature", "properties": { "name": "Д (Декабрист)", "cmt": "id6551: Д (Декабрист) Д-2\nhttps:\/\/russianplanes.net\/id214512", "desc": "id6551: Д (Декабрист) Д-2\nhttps:\/\/russianplanes.net\/id214512" }, "geometry": { "type": "Point", "coordinates": [ 30.233216285706, 59.933086428106002 ] } },
{ "type": "Feature", "properties": { "name": "Проект 340", "cmt": "id6552: Проект 340 Ракета-7 ()\nhttps:\/\/russianplanes.net\/id214553\nhttps:\/\/russianplanes.net\/reginfo\/189507", "desc": "id6552: Проект 340 Ракета-7 ()\nhttps:\/\/russianplanes.net\/id214553\nhttps:\/\/russianplanes.net\/reginfo\/189507" }, "geometry": { "type": "Point", "coordinates": [ 92.090843617915993, 58.601411624720001 ] } },
{ "type": "Feature", "properties": { "name": "?", "cmt": "id6553: ? Победа\nhttps:\/\/russianplanes.net\/id214676", "desc": "id6553: ? Победа\nhttps:\/\/russianplanes.net\/id214676" }, "geometry": { "type": "Point", "coordinates": [ 69.053213596343994, 60.966677238391 ] } },
{ "type": "Feature", "properties": { "name": "Пр. 1204 - Шмель", "cmt": "id6554: Пр. 1204 - Шмель 134\nhttps:\/\/russianplanes.net\/id246833", "desc": "id6554: Пр. 1204 - Шмель 134\nhttps:\/\/russianplanes.net\/id246833" }, "geometry": { "type": "Point", "coordinates": [ 37.498451471328998, 55.726814036495 ] } },
{ "type": "Feature", "properties": { "name": "Пр. 123-бис", "cmt": "id6555: Пр. 123-бис 131 \/ Комсомолец\nhttps:\/\/russianplanes.net\/id219581", "desc": "id6555: Пр. 123-бис 131 \/ Комсомолец\nhttps:\/\/russianplanes.net\/id219581" }, "geometry": { "type": "Point", "coordinates": [ 37.498142704498001, 55.725994182523998 ] } },
{ "type": "Feature", "properties": { "name": "Пр. С - Средняя, серия IX, IX-бис", "cmt": "id6566: Пр. С - Средняя, серия IX, IX-бис С-56\nhttps:\/\/russianplanes.net\/id215171", "desc": "id6566: Пр. С - Средняя, серия IX, IX-бис С-56\nhttps:\/\/russianplanes.net\/id215171" }, "geometry": { "type": "Point", "coordinates": [ 131.891131997109994, 43.113443403574003 ] } },
{ "type": "Feature", "properties": { "name": "Рубка ПЛ пр.641", "cmt": "id6567: Рубка ПЛ пр.641 Б-107 ()\nhttps:\/\/russianplanes.net\/id221673", "desc": "id6567: Рубка ПЛ пр.641 Б-107 ()\nhttps:\/\/russianplanes.net\/id221673" }, "geometry": { "type": "Point", "coordinates": [ 30.399287939072, 59.983290726802998 ] } },
{ "type": "Feature", "properties": { "name": "Проект А615", "cmt": "id6568: Проект А615 М-261 ()\nhttps:\/\/russianplanes.net\/id209281", "desc": "id6568: Проект А615 М-261 ()\nhttps:\/\/russianplanes.net\/id209281" }, "geometry": { "type": "Point", "coordinates": [ 38.955593705177002, 45.021212212747002 ] } },
{ "type": "Feature", "properties": { "name": "тип Калев", "cmt": "id6569: тип Калев Лембит ()\nhttps:\/\/russianplanes.net\/id0", "desc": "id6569: тип Калев Лембит ()\nhttps:\/\/russianplanes.net\/id0" }, "geometry": { "type": "Point", "coordinates": [ 24.738668203353999, 59.451726333126999 ] } },
{ "type": "Feature", "properties": { "name": "EK-1673", "cmt": "id6570: EK-1673 Raim 3 ()\nhttps:\/\/russianplanes.net\/id0", "desc": "id6570: EK-1673 Raim 3 ()\nhttps:\/\/russianplanes.net\/id0" }, "geometry": { "type": "Point", "coordinates": [ 24.737552404403999, 59.452198293731001 ] } },
{ "type": "Feature", "properties": { "name": "тип 1400 шифр «Гриф»", "cmt": "id6571: тип 1400 шифр «Гриф» P401 ()\nhttps:\/\/russianplanes.net\/id0", "desc": "id6571: тип 1400 шифр «Гриф» P401 ()\nhttps:\/\/russianplanes.net\/id0" }, "geometry": { "type": "Point", "coordinates": [ 24.737297594547002, 59.452771127059002 ] } },
{ "type": "Feature", "properties": { "name": "Suur Toll", "cmt": "id6572: Suur Toll Suur Toll ()\nhttps:\/\/russianplanes.net\/id0", "desc": "id6572: Suur Toll Suur Toll ()\nhttps:\/\/russianplanes.net\/id0" }, "geometry": { "type": "Point", "coordinates": [ 24.736195206642002, 59.453164825188999 ] } },
{ "type": "Feature", "properties": { "name": "подводная лодка", "cmt": "id6573: подводная лодка Lituanika KL-6694 ()\nhttps:\/\/russianplanes.net\/id0", "desc": "id6573: подводная лодка Lituanika KL-6694 ()\nhttps:\/\/russianplanes.net\/id0" }, "geometry": { "type": "Point", "coordinates": [ 24.737884998321999, 59.452924353630998 ] } },
{ "type": "Feature", "properties": { "name": "730, тип Аян", "cmt": "id6574: 730, тип Аян Адмирал ()\nhttps:\/\/russianplanes.net\/id0", "desc": "id6574: 730, тип Аян Адмирал ()\nhttps:\/\/russianplanes.net\/id0" }, "geometry": { "type": "Point", "coordinates": [ 24.739097356796002, 59.453105934375998 ] } },
{ "type": "Feature", "properties": { "name": "БТ, БМ (пр. 570)", "cmt": "id6575: БТ, БМ (пр. 570) БТ-0575 ()\nhttps:\/\/russianplanes.net\/id0", "desc": "id6575: БТ, БМ (пр. 570) БТ-0575 ()\nhttps:\/\/russianplanes.net\/id0" }, "geometry": { "type": "Point", "coordinates": [ 26.100149452686001, 52.108760096198999 ] } },
{ "type": "Feature", "properties": { "name": "123К «Комсомолец»", "cmt": "id6576: 123К «Комсомолец» ТК-456 ()\nhttps:\/\/russianplanes.net\/id0", "desc": "id6576: 123К «Комсомолец» ТК-456 ()\nhttps:\/\/russianplanes.net\/id0" }, "geometry": { "type": "Point", "coordinates": [ 158.658961057660008, 53.004466329015997 ] } },
{ "type": "Feature", "properties": { "name": "морские орудия, мины, торпеды и пр.", "cmt": "id6577: морские орудия, мины, торпеды и пр.  ()\nhttps:\/\/russianplanes.net\/id0", "desc": "id6577: морские орудия, мины, торпеды и пр.  ()\nhttps:\/\/russianplanes.net\/id0" }, "geometry": { "type": "Point", "coordinates": [ 158.658462166790002, 53.005602588952001 ] } },
{ "type": "Feature", "properties": { "name": "Пр. 908 - Тритон-2", "cmt": "id6578: Пр. 908 - Тритон-2 4140 ()\nhttps:\/\/russianplanes.net\/id217147", "desc": "id6578: Пр. 908 - Тритон-2 4140 ()\nhttps:\/\/russianplanes.net\/id217147" }, "geometry": { "type": "Point", "coordinates": [ 131.901179552080009, 43.114229738056999 ] } },
{ "type": "Feature", "properties": { "name": "Пр. 123 - Комсомолец", "cmt": "id6579: Пр. 123 - Комсомолец ТК-288 ()\nhttps:\/\/russianplanes.net\/id239534", "desc": "id6579: Пр. 123 - Комсомолец ТК-288 ()\nhttps:\/\/russianplanes.net\/id239534" }, "geometry": { "type": "Point", "coordinates": [ 131.900892555709987, 43.114315889672 ] } },
{ "type": "Feature", "properties": { "name": "тип С (рубка)", "cmt": "id6580: тип С (рубка) С-178 ()\nhttps:\/\/russianplanes.net\/id0", "desc": "id6580: тип С (рубка) С-178 ()\nhttps:\/\/russianplanes.net\/id0" }, "geometry": { "type": "Point", "coordinates": [ 131.937976777550006, 43.089565419259998 ] } },
{ "type": "Feature", "properties": { "name": "проект 667АУ", "cmt": "id6581: проект 667АУ К-430 ()\nhttps:\/\/russianplanes.net\/id0", "desc": "id6581: проект 667АУ К-430 ()\nhttps:\/\/russianplanes.net\/id0" }, "geometry": { "type": "Point", "coordinates": [ 131.920075714590013, 43.111378442754997 ] } },
{ "type": "Feature", "properties": { "name": "пр.?", "cmt": "id6582: пр.? К119 ()\nhttps:\/\/russianplanes.net\/id0", "desc": "id6582: пр.? К119 ()\nhttps:\/\/russianplanes.net\/id0" }, "geometry": { "type": "Point", "coordinates": [ 132.35857665539001, 43.115628511929003 ] } },
{ "type": "Feature", "properties": { "name": "проект 641 «Foxtrot»", "cmt": "id6585: проект 641 «Foxtrot» Б-21 ()\nhttps:\/\/russianplanes.net\/id0", "desc": "id6585: проект 641 «Foxtrot» Б-21 ()\nhttps:\/\/russianplanes.net\/id0" }, "geometry": { "type": "Point", "coordinates": [ 3.2077127695084, 51.334320617952997 ] } },
{ "type": "Feature", "properties": { "name": "Пр. 641", "cmt": "id6586: Пр. 641 Б-427 ()\nhttps:\/\/russianplanes.net\/id0", "desc": "id6586: Пр. 641 Б-427 ()\nhttps:\/\/russianplanes.net\/id0" }, "geometry": { "type": "Point", "coordinates": [ 242.82550111413002, 32.720815392633 ] } },
{ "type": "Feature", "properties": { "name": "Проект 641", "cmt": "id6587: Проект 641 INS S20 \"Kursura\" ()\nhttps:\/\/russianplanes.net\/id0", "desc": "id6587: Проект 641 INS S20 \"Kursura\" ()\nhttps:\/\/russianplanes.net\/id0" }, "geometry": { "type": "Point", "coordinates": [ 83.330510258675005, 17.717460257481999 ] } },
{ "type": "Feature", "properties": { "name": "Подводная лодка Джевецкого", "cmt": "id6588: Подводная лодка Джевецкого ? ()\nhttps:\/\/russianplanes.net\/id0", "desc": "id6588: Подводная лодка Джевецкого ? ()\nhttps:\/\/russianplanes.net\/id0" }, "geometry": { "type": "Point", "coordinates": [ 30.293834209442, 59.929541788686002 ] } },
{ "type": "Feature", "properties": { "name": "пр.651", "cmt": "id6589: пр.651 К-77 ()\nhttps:\/\/russianplanes.net\/id0", "desc": "id6589: пр.651 К-77 ()\nhttps:\/\/russianplanes.net\/id0" }, "geometry": { "type": "Point", "coordinates": [ 288.602101206779025, 41.803341442786 ] } },
{ "type": "Feature", "properties": { "name": "Пр. 1125", "cmt": "id6591: Пр. 1125 181 ()\nhttps:\/\/russianplanes.net\/id0", "desc": "id6591: Пр. 1125 181 ()\nhttps:\/\/russianplanes.net\/id0" }, "geometry": { "type": "Point", "coordinates": [ 56.038102805614002, 58.034055758134997 ] } },
{ "type": "Feature", "properties": { "name": "Пр. 1125", "cmt": "id6592: Пр. 1125 234 \/ Калюжный ()\nhttps:\/\/russianplanes.net\/id0", "desc": "id6592: Пр. 1125 234 \/ Калюжный ()\nhttps:\/\/russianplanes.net\/id0" }, "geometry": { "type": "Point", "coordinates": [ 48.498515188694, 55.836272044573001 ] } },
{ "type": "Feature", "properties": { "name": "Пр. 1125", "cmt": "id6593: Пр. 1125 1423\nhttps:\/\/russianplanes.net\/id221312", "desc": "id6593: Пр. 1125 1423\nhttps:\/\/russianplanes.net\/id221312" }, "geometry": { "type": "Point", "coordinates": [ 44.533665776253002, 48.711766783282997 ] } },
{ "type": "Feature", "properties": { "name": "буксирный пароход", "cmt": "id6594: буксирный пароход Ижорец-8\nhttps:\/\/russianplanes.net\/id228811", "desc": "id6594: буксирный пароход Ижорец-8\nhttps:\/\/russianplanes.net\/id228811" }, "geometry": { "type": "Point", "coordinates": [ 31.075266301631999, 60.12451719549 ] } },
{ "type": "Feature", "properties": { "name": "Пр. 1125 ", "cmt": "id6595: Пр. 1125  124 \/ Герой Советского Союза Иван Голубец ()\nhttps:\/\/russianplanes.net\/id247803", "desc": "id6595: Пр. 1125  124 \/ Герой Советского Союза Иван Голубец ()\nhttps:\/\/russianplanes.net\/id247803" }, "geometry": { "type": "Point", "coordinates": [ 38.161045610904999, 46.050725460464001 ] } },
{ "type": "Feature", "properties": { "name": "катер пр. Г-5", "cmt": "id6596: катер пр. Г-5 ТК-383\nhttps:\/\/russianplanes.net\/id0", "desc": "id6596: катер пр. Г-5 ТК-383\nhttps:\/\/russianplanes.net\/id0" }, "geometry": { "type": "Point", "coordinates": [ 31.550239920616001, 46.618466649181997 ] } },
{ "type": "Feature", "properties": { "name": "Пр. 1125 ", "cmt": "id6597: Пр. 1125  БКА-301 ()\nhttps:\/\/russianplanes.net\/id0", "desc": "id6597: Пр. 1125  БКА-301 ()\nhttps:\/\/russianplanes.net\/id0" }, "geometry": { "type": "Point", "coordinates": [ 32.654607295989997, 46.654432294863 ] } },
{ "type": "Feature", "properties": { "name": "Пр. 1125", "cmt": "id6598: Пр. 1125 БК-134 ()\nhttps:\/\/russianplanes.net\/id0", "desc": "id6598: Пр. 1125 БК-134 ()\nhttps:\/\/russianplanes.net\/id0" }, "geometry": { "type": "Point", "coordinates": [ 28.832883238792, 45.332881522984003 ] } },
{ "type": "Feature", "properties": { "name": "Пр. 1125", "cmt": "id6599: Пр. 1125 БК-92 ()\nhttps:\/\/russianplanes.net\/id0", "desc": "id6599: Пр. 1125 БК-92 ()\nhttps:\/\/russianplanes.net\/id0" }, "geometry": { "type": "Point", "coordinates": [ 26.122685372829, 52.118568794071003 ] } },
{ "type": "Feature", "properties": { "name": "катер", "cmt": "id6609: катер Герой\nhttps:\/\/russianplanes.net\/id222606", "desc": "id6609: катер Герой\nhttps:\/\/russianplanes.net\/id222606" }, "geometry": { "type": "Point", "coordinates": [ 44.009428024291999, 56.3323456655 ] } },
{ "type": "Feature", "properties": { "name": "рубка ПЛ", "cmt": "id6610: рубка ПЛ \nhttps:\/\/russianplanes.net\/id0", "desc": "id6610: рубка ПЛ \nhttps:\/\/russianplanes.net\/id0" }, "geometry": { "type": "Point", "coordinates": [ 43.873633146285997, 56.362503337611997 ] } },
{ "type": "Feature", "properties": { "name": "ТК пр.123 Комсомолец", "cmt": "id6614: ТК пр.123 Комсомолец  ()\nhttps:\/\/russianplanes.net\/id0", "desc": "id6614: ТК пр.123 Комсомолец  ()\nhttps:\/\/russianplanes.net\/id0" }, "geometry": { "type": "Point", "coordinates": [ 30.233956575394, 59.929348257884001 ] } },
{ "type": "Feature", "properties": { "name": "ТК пр.123", "cmt": "id6615: ТК пр.123 123 ()\nhttps:\/\/russianplanes.net\/id224328", "desc": "id6615: ТК пр.123 123 ()\nhttps:\/\/russianplanes.net\/id224328" }, "geometry": { "type": "Point", "coordinates": [ 20.516002178192, 54.708089677197997 ] } },
{ "type": "Feature", "properties": { "name": "ПЛ проекта 641", "cmt": "id6616: ПЛ проекта 641 Б-413\nhttps:\/\/russianplanes.net\/id228025", "desc": "id6616: ПЛ проекта 641 Б-413\nhttps:\/\/russianplanes.net\/id228025" }, "geometry": { "type": "Point", "coordinates": [ 20.494040250777999, 54.706535062741999 ] } },
{ "type": "Feature", "properties": { "name": "ТК тип «Комсомолец» пр. 123", "cmt": "id6617: ТК тип «Комсомолец» пр. 123 36\nhttps:\/\/russianplanes.net\/id229210", "desc": "id6617: ТК тип «Комсомолец» пр. 123 36\nhttps:\/\/russianplanes.net\/id229210" }, "geometry": { "type": "Point", "coordinates": [ 19.892517328261999, 54.640445171054999 ] } },
{ "type": "Feature", "properties": { "name": "ТК пр. 123К «Комсомолец»", "cmt": "id6618: ТК пр. 123К «Комсомолец» 815 ()\nhttps:\/\/russianplanes.net\/id255212", "desc": "id6618: ТК пр. 123К «Комсомолец» 815 ()\nhttps:\/\/russianplanes.net\/id255212" }, "geometry": { "type": "Point", "coordinates": [ 33.583649396896, 44.553306609300002 ] } },
{ "type": "Feature", "properties": { "name": "ТК пр. 123 «Комсомолец» ", "cmt": "id6619: ТК пр. 123 «Комсомолец»  86 ()\nhttps:\/\/russianplanes.net\/id0", "desc": "id6619: ТК пр. 123 «Комсомолец»  86 ()\nhttps:\/\/russianplanes.net\/id0" }, "geometry": { "type": "Point", "coordinates": [ 28.648231923579999, 44.174309040613998 ] } },
{ "type": "Feature", "properties": { "name": "ТК пр. 123 «Комсомолец»", "cmt": "id6620: ТК пр. 123 «Комсомолец»  ()\nhttps:\/\/russianplanes.net\/id0", "desc": "id6620: ТК пр. 123 «Комсомолец»  ()\nhttps:\/\/russianplanes.net\/id0" }, "geometry": { "type": "Point", "coordinates": [ 34.971663057804001, 32.829574465630003 ] } },
{ "type": "Feature", "properties": { "name": "катер", "cmt": "id6621: катер \nhttps:\/\/russianplanes.net\/id0", "desc": "id6621: катер \nhttps:\/\/russianplanes.net\/id0" }, "geometry": { "type": "Point", "coordinates": [ 51.165789663791998, 43.654367548354998 ] } },
{ "type": "Feature", "properties": { "name": "ТК пр.123К", "cmt": "id6623: ТК пр.123К  ()\nhttps:\/\/russianplanes.net\/id0", "desc": "id6623: ТК пр.123К  ()\nhttps:\/\/russianplanes.net\/id0" }, "geometry": { "type": "Point", "coordinates": [ 26.606998443603999, 44.050308817492997 ] } },
{ "type": "Feature", "properties": { "name": "ТК пр. 123 «Комсомолец» ", "cmt": "id6625: ТК пр. 123 «Комсомолец»  301 ()\nhttps:\/\/russianplanes.net\/id0", "desc": "id6625: ТК пр. 123 «Комсомолец»  301 ()\nhttps:\/\/russianplanes.net\/id0" }, "geometry": { "type": "Point", "coordinates": [ 27.921862900257, 43.200414298555998 ] } },
{ "type": "Feature", "properties": { "name": "Алексеев Пр. 342М", "cmt": "id6628: Алексеев Пр. 342М Комета-1  ()\nhttps:\/\/russianplanes.net\/id0", "desc": "id6628: Алексеев Пр. 342М Комета-1  ()\nhttps:\/\/russianplanes.net\/id0" }, "geometry": { "type": "Point", "coordinates": [ 27.903385162353999, 43.183112266107003 ] } },
{ "type": "Feature", "properties": { "name": "СМПЛ пр. 907 Тритон-1М", "cmt": "id6629: СМПЛ пр. 907 Тритон-1М  ()\nhttps:\/\/russianplanes.net\/id219653", "desc": "id6629: СМПЛ пр. 907 Тритон-1М  ()\nhttps:\/\/russianplanes.net\/id219653" }, "geometry": { "type": "Point", "coordinates": [ 46.055862307548999, 51.543001562077002 ] } },
{ "type": "Feature", "properties": { "name": "СМПЛ пр.908 Тритон-2", "cmt": "id6630: СМПЛ пр.908 Тритон-2 В-499 ()\nhttps:\/\/russianplanes.net\/id221842", "desc": "id6630: СМПЛ пр.908 Тритон-2 В-499 ()\nhttps:\/\/russianplanes.net\/id221842" }, "geometry": { "type": "Point", "coordinates": [ 29.755949378014002, 59.993978708774002 ] } },
{ "type": "Feature", "properties": { "name": "ТК пр.123 «Комсомолец»", "cmt": "id6631: ТК пр.123 «Комсомолец» Т5 ()\nhttps:\/\/russianplanes.net\/id0", "desc": "id6631: ТК пр.123 «Комсомолец» Т5 ()\nhttps:\/\/russianplanes.net\/id0" }, "geometry": { "type": "Point", "coordinates": [ 29.804411530494999, 40.724558550453999 ] } },
{ "type": "Feature", "properties": { "name": "ТК пр.Г-5", "cmt": "id6632: ТК пр.Г-5  ()\nhttps:\/\/russianplanes.net\/id0", "desc": "id6632: ТК пр.Г-5  ()\nhttps:\/\/russianplanes.net\/id0" }, "geometry": { "type": "Point", "coordinates": [ 19.945810139178999, 54.638000678144003 ] } },
{ "type": "Feature", "properties": { "name": "ТК пр.123", "cmt": "id6633: ТК пр.123 57 ()\nhttps:\/\/russianplanes.net\/id234834", "desc": "id6633: ТК пр.123 57 ()\nhttps:\/\/russianplanes.net\/id234834" }, "geometry": { "type": "Point", "coordinates": [ 29.715716242789998, 60.009712473424003 ] } },
{ "type": "Feature", "properties": { "name": "Пр. П-19 (Д-3)", "cmt": "id6634: Пр. П-19 (Д-3) ТКА-12  ()\nhttps:\/\/russianplanes.net\/id246724", "desc": "id6634: Пр. П-19 (Д-3) ТКА-12  ()\nhttps:\/\/russianplanes.net\/id246724" }, "geometry": { "type": "Point", "coordinates": [ 33.436374664307003, 69.079855013553001 ] } },
{ "type": "Feature", "properties": { "name": "ТК пр. 206 ", "cmt": "id6635: ТК пр. 206  85 ()\nhttps:\/\/russianplanes.net\/id231779", "desc": "id6635: ТК пр. 206  85 ()\nhttps:\/\/russianplanes.net\/id231779" }, "geometry": { "type": "Point", "coordinates": [ 37.384865283966001, 45.277400514151999 ] } },
{ "type": "Feature", "properties": { "name": "ТК  пр. 123 ", "cmt": "id6636: ТК  пр. 123   ()\nhttps:\/\/russianplanes.net\/id0", "desc": "id6636: ТК  пр. 123   ()\nhttps:\/\/russianplanes.net\/id0" }, "geometry": { "type": "Point", "coordinates": [ 39.422163963317999, 47.117990713654002 ] } },
{ "type": "Feature", "properties": { "name": "ПЛ пр. 613", "cmt": "id6637: ПЛ пр. 613 С-88 ()\nhttps:\/\/russianplanes.net\/id223933", "desc": "id6637: ПЛ пр. 613 С-88 ()\nhttps:\/\/russianplanes.net\/id223933" }, "geometry": { "type": "Point", "coordinates": [ 140.269387364390013, 49.036831563703998 ] } },
{ "type": "Feature", "properties": { "name": "какой-то корабль", "cmt": "id6638: какой-то корабль 067 ()\nhttps:\/\/russianplanes.net\/id0", "desc": "id6638: какой-то корабль 067 ()\nhttps:\/\/russianplanes.net\/id0" }, "geometry": { "type": "Point", "coordinates": [ 140.269795060159993, 49.036922999681998 ] } },
{ "type": "Feature", "properties": { "name": "буксир 1913г", "cmt": "id6657: буксир 1913г Харьков ()\nhttps:\/\/russianplanes.net\/id224330", "desc": "id6657: буксир 1913г Харьков ()\nhttps:\/\/russianplanes.net\/id224330" }, "geometry": { "type": "Point", "coordinates": [ 32.317534089087999, 60.105758474783997 ] } },
{ "type": "Feature", "properties": { "name": "тральщик", "cmt": "id6658: тральщик ТЩ-100 ()\nhttps:\/\/russianplanes.net\/id224331", "desc": "id6658: тральщик ТЩ-100 ()\nhttps:\/\/russianplanes.net\/id224331" }, "geometry": { "type": "Point", "coordinates": [ 32.317834496498001, 60.106039204656 ] } },
{ "type": "Feature", "properties": { "name": "Пограничный катер пр. 1398 Аист", "cmt": "id6660: Пограничный катер пр. 1398 Аист 01 ()\nhttps:\/\/russianplanes.net\/id0", "desc": "id6660: Пограничный катер пр. 1398 Аист 01 ()\nhttps:\/\/russianplanes.net\/id0" }, "geometry": { "type": "Point", "coordinates": [ 113.507601320739994, 52.034895547574997 ] } },
{ "type": "Feature", "properties": { "name": "ПЛ проекта 940 Ленок", "cmt": "id6661: ПЛ проекта 940 Ленок БС-257 ()\nhttps:\/\/russianplanes.net\/id0", "desc": "id6661: ПЛ проекта 940 Ленок БС-257 ()\nhttps:\/\/russianplanes.net\/id0" }, "geometry": { "type": "Point", "coordinates": [ 39.676555395126002, 54.661689365969998 ] } },
{ "type": "Feature", "properties": { "name": "ПЛ пр. 627 Кит", "cmt": "id6662: ПЛ пр. 627 Кит К-14 ()\nhttps:\/\/russianplanes.net\/id0", "desc": "id6662: ПЛ пр. 627 Кит К-14 ()\nhttps:\/\/russianplanes.net\/id0" }, "geometry": { "type": "Point", "coordinates": [ 36.615763306618, 55.099356787646997 ] } },
{ "type": "Feature", "properties": { "name": "Алексеев пр. 340", "cmt": "id6663: Алексеев пр. 340 Ракета-25 ()\nhttps:\/\/russianplanes.net\/id0\nhttps:\/\/russianplanes.net\/reginfo\/189624", "desc": "id6663: Алексеев пр. 340 Ракета-25 ()\nhttps:\/\/russianplanes.net\/id0\nhttps:\/\/russianplanes.net\/reginfo\/189624" }, "geometry": { "type": "Point", "coordinates": [ 49.142811298369999, 55.132742116343003 ] } },
{ "type": "Feature", "properties": { "name": "Алексеев пр340", "cmt": "id6664: Алексеев пр340 Ракета-01П ()\nhttps:\/\/russianplanes.net\/id0\nhttps:\/\/russianplanes.net\/reginfo\/190719", "desc": "id6664: Алексеев пр340 Ракета-01П ()\nhttps:\/\/russianplanes.net\/id0\nhttps:\/\/russianplanes.net\/reginfo\/190719" }, "geometry": { "type": "Point", "coordinates": [ 30.524740219116001, 59.829350226007001 ] } },
{ "type": "Feature", "properties": { "name": "Алексеев пр.340", "cmt": "id6665: Алексеев пр.340 Ракета-102\nhttps:\/\/russianplanes.net\/id0\nhttps:\/\/russianplanes.net\/reginfo\/189936", "desc": "id6665: Алексеев пр.340 Ракета-102\nhttps:\/\/russianplanes.net\/id0\nhttps:\/\/russianplanes.net\/reginfo\/189936" }, "geometry": { "type": "Point", "coordinates": [ 37.990993559361002, 55.539563682682001 ] } },
{ "type": "Feature", "properties": { "name": "Алексеев пр.340", "cmt": "id6666: Алексеев пр.340 Ракета-03 Борис Цариков\nhttps:\/\/russianplanes.net\/id0\nhttps:\/\/russianplanes.net\/reginfo\/189615", "desc": "id6666: Алексеев пр.340 Ракета-03 Борис Цариков\nhttps:\/\/russianplanes.net\/id0\nhttps:\/\/russianplanes.net\/reginfo\/189615" }, "geometry": { "type": "Point", "coordinates": [ 26.116154193878, 52.114560912656998 ] } },
{ "type": "Feature", "properties": { "name": "Алексеев пр340", "cmt": "id6667: Алексеев пр340 Ракета  ()\nhttps:\/\/russianplanes.net\/id0", "desc": "id6667: Алексеев пр340 Ракета  ()\nhttps:\/\/russianplanes.net\/id0" }, "geometry": { "type": "Point", "coordinates": [ 25.329660773276998, 50.742064488125997 ] } },
{ "type": "Feature", "properties": { "name": "Алексеев пр.340", "cmt": "id6668: Алексеев пр.340 Ракета-02М ()\nhttps:\/\/russianplanes.net\/id0\nhttps:\/\/russianplanes.net\/reginfo\/190242", "desc": "id6668: Алексеев пр.340 Ракета-02М ()\nhttps:\/\/russianplanes.net\/id0\nhttps:\/\/russianplanes.net\/reginfo\/190242" }, "geometry": { "type": "Point", "coordinates": [ 29.490332901477998, 46.827857371797997 ] } },
{ "type": "Feature", "properties": { "name": "Алексеев пр.340", "cmt": "id6669: Алексеев пр.340 Ракета-170\nhttps:\/\/russianplanes.net\/id243702\nhttps:\/\/russianplanes.net\/reginfo\/190239", "desc": "id6669: Алексеев пр.340 Ракета-170\nhttps:\/\/russianplanes.net\/id243702\nhttps:\/\/russianplanes.net\/reginfo\/190239" }, "geometry": { "type": "Point", "coordinates": [ 37.199267148971998, 55.307568540688003 ] } },
{ "type": "Feature", "properties": { "name": "Алексеев пр.340", "cmt": "id6670: Алексеев пр.340  ()\nhttps:\/\/russianplanes.net\/id0", "desc": "id6670: Алексеев пр.340  ()\nhttps:\/\/russianplanes.net\/id0" }, "geometry": { "type": "Point", "coordinates": [ 45.077636539936002, 40.603002624071003 ] } },
{ "type": "Feature", "properties": { "name": "Алексеев пр.340", "cmt": "id6671: Алексеев пр.340 Ракета-255 ()\nhttps:\/\/russianplanes.net\/id0\nhttps:\/\/russianplanes.net\/reginfo\/190698", "desc": "id6671: Алексеев пр.340 Ракета-255 ()\nhttps:\/\/russianplanes.net\/id0\nhttps:\/\/russianplanes.net\/reginfo\/190698" }, "geometry": { "type": "Point", "coordinates": [ 68.330680131912004, 58.105700778219997 ] } },
{ "type": "Feature", "properties": { "name": "Апексеев пр.340", "cmt": "id6672: Апексеев пр.340 Ракета-248\nhttps:\/\/russianplanes.net\/id297085\nhttps:\/\/russianplanes.net\/reginfo\/190581", "desc": "id6672: Апексеев пр.340 Ракета-248\nhttps:\/\/russianplanes.net\/id297085\nhttps:\/\/russianplanes.net\/reginfo\/190581" }, "geometry": { "type": "Point", "coordinates": [ 60.571060180663999, 55.731978251215999 ] } },
{ "type": "Feature", "properties": { "name": "Алексеев пр.340", "cmt": "id6673: Алексеев пр.340 Ракета М-01 ()\nhttps:\/\/russianplanes.net\/id0\nhttps:\/\/russianplanes.net\/reginfo\/190248", "desc": "id6673: Алексеев пр.340 Ракета М-01 ()\nhttps:\/\/russianplanes.net\/id0\nhttps:\/\/russianplanes.net\/reginfo\/190248" }, "geometry": { "type": "Point", "coordinates": [ 92.079795598984006, 58.606068012084997 ] } },
{ "type": "Feature", "properties": { "name": "Алексеев пр.340", "cmt": "id6674: Алексеев пр.340 Ракета-150М ()\nhttps:\/\/russianplanes.net\/id0\nhttps:\/\/russianplanes.net\/reginfo\/190104", "desc": "id6674: Алексеев пр.340 Ракета-150М ()\nhttps:\/\/russianplanes.net\/id0\nhttps:\/\/russianplanes.net\/reginfo\/190104" }, "geometry": { "type": "Point", "coordinates": [ 39.550751745701, 50.200028056716 ] } },
{ "type": "Feature", "properties": { "name": "Пр.1205 Скат", "cmt": "id6685: Пр.1205 Скат 634\/Д-357\nhttps:\/\/russianplanes.net\/id221005", "desc": "id6685: Пр.1205 Скат 634\/Д-357\nhttps:\/\/russianplanes.net\/id221005" }, "geometry": { "type": "Point", "coordinates": [ 37.454734146595001, 55.851578255329002 ] } },
{ "type": "Feature", "properties": { "name": "Пр. 1125", "cmt": "id6692: Пр. 1125 905\nhttps:\/\/russianplanes.net\/id0", "desc": "id6692: Пр. 1125 905\nhttps:\/\/russianplanes.net\/id0" }, "geometry": { "type": "Point", "coordinates": [ 127.52311706543, 50.256198612045999 ] } },
{ "type": "Feature", "properties": { "name": "Пр. 1124 - БК", "cmt": "id6693: Пр. 1124 - БК Ейский патриот ()\nhttps:\/\/russianplanes.net\/id247801", "desc": "id6693: Пр. 1124 - БК Ейский патриот ()\nhttps:\/\/russianplanes.net\/id247801" }, "geometry": { "type": "Point", "coordinates": [ 38.285996317863003, 46.732301598357999 ] } },
{ "type": "Feature", "properties": { "name": "Пр. 1124", "cmt": "id6694: Пр. 1124 433 ()\nhttps:\/\/russianplanes.net\/id247824", "desc": "id6694: Пр. 1124 433 ()\nhttps:\/\/russianplanes.net\/id247824" }, "geometry": { "type": "Point", "coordinates": [ 37.617611289023998, 55.784338167855999 ] } },
{ "type": "Feature", "properties": { "name": "Пр. 1125", "cmt": "id6695: Пр. 1125 302 ()\nhttps:\/\/russianplanes.net\/id0", "desc": "id6695: Пр. 1125 302 ()\nhttps:\/\/russianplanes.net\/id0" }, "geometry": { "type": "Point", "coordinates": [ 135.040726661679997, 48.550673607371998 ] } },
{ "type": "Feature", "properties": { "name": "Пр. 1125", "cmt": "id6696: Пр. 1125 41 ()\nhttps:\/\/russianplanes.net\/id0", "desc": "id6696: Пр. 1125 41 ()\nhttps:\/\/russianplanes.net\/id0" }, "geometry": { "type": "Point", "coordinates": [ 31.479461789131001, 49.753306234695998 ] } },
{ "type": "Feature", "properties": { "name": "Пр. 1125", "cmt": "id6697: Пр. 1125 555 ()\nhttps:\/\/russianplanes.net\/id0", "desc": "id6697: Пр. 1125 555 ()\nhttps:\/\/russianplanes.net\/id0" }, "geometry": { "type": "Point", "coordinates": [ 30.561513304710001, 50.428137346341998 ] } },
{ "type": "Feature", "properties": { "name": "Пр. 1125", "cmt": "id6698: Пр. 1125 БК-44 ()\nhttps:\/\/russianplanes.net\/id0", "desc": "id6698: Пр. 1125 БК-44 ()\nhttps:\/\/russianplanes.net\/id0" }, "geometry": { "type": "Point", "coordinates": [ 37.532064914703, 47.084504578424998 ] } },
{ "type": "Feature", "properties": { "name": "Пр. 206", "cmt": "id6715: Пр. 206 706 \/ Покровскй сторожевой\nhttps:\/\/russianplanes.net\/id221912", "desc": "id6715: Пр. 206 706 \/ Покровскй сторожевой\nhttps:\/\/russianplanes.net\/id221912" }, "geometry": { "type": "Point", "coordinates": [ 46.114506125449999, 51.505259969714999 ] } },
{ "type": "Feature", "properties": { "name": "катер на ПК", "cmt": "id6752: катер на ПК  ()\nhttps:\/\/russianplanes.net\/id0", "desc": "id6752: катер на ПК  ()\nhttps:\/\/russianplanes.net\/id0" }, "geometry": { "type": "Point", "coordinates": [ 43.207412660122003, 56.708280114719003 ] } },
{ "type": "Feature", "properties": { "name": "Тритон-1", "cmt": "id6830: Тритон-1 \nhttps:\/\/russianplanes.net\/id223736", "desc": "id6830: Тритон-1 \nhttps:\/\/russianplanes.net\/id223736" }, "geometry": { "type": "Point", "coordinates": [ 20.494193136692001, 54.706991907358997 ] } },
{ "type": "Feature", "properties": { "name": "ЦКБ Рубин Пр. 667АК - Аксон", "cmt": "id6906: ЦКБ Рубин Пр. 667АК - Аксон КС-403 \/ Казань\nhttps:\/\/russianplanes.net\/id227014", "desc": "id6906: ЦКБ Рубин Пр. 667АК - Аксон КС-403 \/ Казань\nhttps:\/\/russianplanes.net\/id227014" }, "geometry": { "type": "Point", "coordinates": [ 49.107487125467003, 55.831452668113002 ] } },
{ "type": "Feature", "properties": { "name": "641Б", "cmt": "id6919: 641Б Б-396\nhttps:\/\/russianplanes.net\/id228027", "desc": "id6919: 641Б Б-396\nhttps:\/\/russianplanes.net\/id228027" }, "geometry": { "type": "Point", "coordinates": [ 37.456508082313, 55.852464212241003 ] } },
{ "type": "Feature", "properties": { "name": "катер Пр. 371  Адмиралтеец", "cmt": "id6952: катер Пр. 371  Адмиралтеец \nhttps:\/\/russianplanes.net\/id228791", "desc": "id6952: катер Пр. 371  Адмиралтеец \nhttps:\/\/russianplanes.net\/id228791" }, "geometry": { "type": "Point", "coordinates": [ 170.252977014669995, 69.702207072942997 ] } },
{ "type": "Feature", "properties": { "name": "Q-065", "cmt": "id7033: Q-065 Валерий Брюсов\nhttps:\/\/russianplanes.net\/id208358\nhttps:\/\/russianplanes.net\/reginfo\/144927", "desc": "id7033: Q-065 Валерий Брюсов\nhttps:\/\/russianplanes.net\/id208358\nhttps:\/\/russianplanes.net\/reginfo\/144927" }, "geometry": { "type": "Point", "coordinates": [ 37.606133357338003, 55.736816251065001 ] } },
{ "type": "Feature", "properties": { "name": "СБ-37", "cmt": "id7488: СБ-37 Железняков\nhttps:\/\/russianplanes.net\/id224332", "desc": "id7488: СБ-37 Железняков\nhttps:\/\/russianplanes.net\/id224332" }, "geometry": { "type": "Point", "coordinates": [ 30.525674162352001, 50.473890174860003 ] } },
{ "type": "Feature", "properties": { "cmt": "id7538:  М305 ()\nhttps:\/\/russianplanes.net\/id0", "desc": "id7538:  М305 ()\nhttps:\/\/russianplanes.net\/id0" }, "geometry": { "type": "Point", "coordinates": [ 30.721399706423998, 46.374526206127001 ] } },
{ "type": "Feature", "properties": { "cmt": "id7539:  729 ()\nhttps:\/\/russianplanes.net\/id0", "desc": "id7539:  729 ()\nhttps:\/\/russianplanes.net\/id0" }, "geometry": { "type": "Point", "coordinates": [ 30.719420236171, 46.372871774026997 ] } },
{ "type": "Feature", "properties": { "name": "другое", "cmt": "id7956: другое «Стрелец» ()\nhttps:\/\/russianplanes.net\/id0", "desc": "id7956: другое «Стрелец» ()\nhttps:\/\/russianplanes.net\/id0" }, "geometry": { "type": "Point", "coordinates": [ 29.776656031609001, 59.983369355053 ] } },
{ "type": "Feature", "properties": { "name": "Пр. 956 - Сарыч", "cmt": "id7957: Пр. 956 - Сарыч 620\\\\Беспокойный ()\nhttps:\/\/russianplanes.net\/id233193", "desc": "id7957: Пр. 956 - Сарыч 620\\\\Беспокойный ()\nhttps:\/\/russianplanes.net\/id233193" }, "geometry": { "type": "Point", "coordinates": [ 29.760493040084999, 59.984059558803999 ] } },
{ "type": "Feature", "properties": { "name": "Пр. 1839", "cmt": "id7958: Пр. 1839 АС-22 ()\nhttps:\/\/russianplanes.net\/id238722", "desc": "id7958: Пр. 1839 АС-22 ()\nhttps:\/\/russianplanes.net\/id238722" }, "geometry": { "type": "Point", "coordinates": [ 29.762279391288999, 59.984247940099998 ] } },
{ "type": "Feature", "properties": { "name": "Пр. 1837", "cmt": "id7959: Пр. 1837 АС-5 ()\nhttps:\/\/russianplanes.net\/id239110", "desc": "id7959: Пр. 1837 АС-5 ()\nhttps:\/\/russianplanes.net\/id239110" }, "geometry": { "type": "Point", "coordinates": [ 29.762493968009998, 59.984535071871001 ] } },
{ "type": "Feature", "properties": { "name": "Пассажирский колесный пароход 1911г.выпуска", "cmt": "id7960: Пассажирский колесный пароход 1911г.выпуска С-02-607 Н.В.Гоголь ()\nhttps:\/\/russianplanes.net\/id0", "desc": "id7960: Пассажирский колесный пароход 1911г.выпуска С-02-607 Н.В.Гоголь ()\nhttps:\/\/russianplanes.net\/id0" }, "geometry": { "type": "Point", "coordinates": [ 40.542672872543001, 64.527454336556005 ] } },
{ "type": "Feature", "properties": { "name": "другое", "cmt": "id7998: другое \nhttps:\/\/russianplanes.net\/id245909", "desc": "id7998: другое \nhttps:\/\/russianplanes.net\/id245909" }, "geometry": { "type": "Point", "coordinates": [ 29.762011170387002, 59.983827703486 ] } },
{ "type": "Feature", "properties": { "name": "Г-5", "cmt": "id8003: Г-5 21\nhttps:\/\/russianplanes.net\/id237832", "desc": "id8003: Г-5 21\nhttps:\/\/russianplanes.net\/id237832" }, "geometry": { "type": "Point", "coordinates": [ 125.740043520930001, 39.039682985229 ] } },
{ "type": "Feature", "properties": { "name": "Пр. 123 - Комсомолец", "cmt": "id8078: Пр. 123 - Комсомолец  ()\nhttps:\/\/russianplanes.net\/id0", "desc": "id8078: Пр. 123 - Комсомолец  ()\nhttps:\/\/russianplanes.net\/id0" }, "geometry": { "type": "Point", "coordinates": [ 36.783795654774003, 46.752178471572002 ] } },
{ "type": "Feature", "properties": { "name": "Пр. К - Крейсерская, серия XIV", "cmt": "id8079: Пр. К - Крейсерская, серия XIV К-21 ()\nhttps:\/\/russianplanes.net\/id221894", "desc": "id8079: Пр. К - Крейсерская, серия XIV К-21 ()\nhttps:\/\/russianplanes.net\/id221894" }, "geometry": { "type": "Point", "coordinates": [ 33.433008491993, 69.081054821603004 ] } },
{ "type": "Feature", "properties": { "name": "Тип Я-5", "cmt": "id8080: Тип Я-5 КЭМТЩ-772 ()\nhttps:\/\/russianplanes.net\/id270941", "desc": "id8080: Тип Я-5 КЭМТЩ-772 ()\nhttps:\/\/russianplanes.net\/id270941" }, "geometry": { "type": "Point", "coordinates": [ 38.952962458134003, 47.207237200938998 ] } },
{ "type": "Feature", "properties": { "name": "другое типы судов", "cmt": "id8142: другое типы судов  ()\nhttps:\/\/russianplanes.net\/id250543", "desc": "id8142: другое типы судов  ()\nhttps:\/\/russianplanes.net\/id250543" }, "geometry": { "type": "Point", "coordinates": [ 44.513036906719002, 48.697596088651999 ] } },
{ "type": "Feature", "properties": { "name": "другое типы судов", "cmt": "id8216: другое типы судов  «Бриз» ()\nhttps:\/\/russianplanes.net\/id263045", "desc": "id8216: другое типы судов  «Бриз» ()\nhttps:\/\/russianplanes.net\/id263045" }, "geometry": { "type": "Point", "coordinates": [ 28.725707530975001, 60.714206694245 ] } },
{ "type": "Feature", "properties": { "name": "Сторожевой катер", "cmt": "id8218: Сторожевой катер К-123 Ураган ()\nhttps:\/\/russianplanes.net\/id256996", "desc": "id8218: Сторожевой катер К-123 Ураган ()\nhttps:\/\/russianplanes.net\/id256996" }, "geometry": { "type": "Point", "coordinates": [ 61.453574001789001, 55.169052056058 ] } },
{ "type": "Feature", "properties": { "name": "Пр. 78 - А", "cmt": "id8256: Пр. 78 - А Ленинград\nhttps:\/\/russianplanes.net\/id247847", "desc": "id8256: Пр. 78 - А Ленинград\nhttps:\/\/russianplanes.net\/id247847" }, "geometry": { "type": "Point", "coordinates": [ 31.075040996075, 60.124522539703001 ] } },
{ "type": "Feature", "properties": { "name": "Барк \"Товарищ\"", "cmt": "id8316: Барк \"Товарищ\" Gorch Fock\\\\\"Товарищ\" ()\nhttps:\/\/russianplanes.net\/id0", "desc": "id8316: Барк \"Товарищ\" Gorch Fock\\\\\"Товарищ\" ()\nhttps:\/\/russianplanes.net\/id0" }, "geometry": { "type": "Point", "coordinates": [ 13.098578453064, 54.316655913974003 ] } },
{ "type": "Feature", "properties": { "name": "ВМС ГДР", "cmt": "id8317: ВМС ГДР \nhttps:\/\/russianplanes.net\/id0", "desc": "id8317: ВМС ГДР \nhttps:\/\/russianplanes.net\/id0" }, "geometry": { "type": "Point", "coordinates": [ 13.115969896317001, 54.305902947485997 ] } },
{ "type": "Feature", "properties": { "name": "Пр. 613", "cmt": "id8322: Пр. 613 С-357 Ульяновский комсомолец\nhttps:\/\/russianplanes.net\/id223957", "desc": "id8322: Пр. 613 С-357 Ульяновский комсомолец\nhttps:\/\/russianplanes.net\/id223957" }, "geometry": { "type": "Point", "coordinates": [ 20.493989288807001, 54.707072490003 ] } },
{ "type": "Feature", "properties": { "name": "Пр. 907 - Тритон-1", "cmt": "id8388: Пр. 907 - Тритон-1 А600 ()\nhttps:\/\/russianplanes.net\/id0", "desc": "id8388: Пр. 907 - Тритон-1 А600 ()\nhttps:\/\/russianplanes.net\/id0" }, "geometry": { "type": "Point", "coordinates": [ 49.818717241286997, 40.388291457211999 ] } },
{ "type": "Feature", "properties": { "name": "неизвестные проекты и единичные экземпляры", "cmt": "id8389: неизвестные проекты и единичные экземпляры  ()\nhttps:\/\/russianplanes.net\/id0", "desc": "id8389: неизвестные проекты и единичные экземпляры  ()\nhttps:\/\/russianplanes.net\/id0" }, "geometry": { "type": "Point", "coordinates": [ 49.818803071975999, 40.388458979733002 ] } },
{ "type": "Feature", "properties": { "name": "другое типы судов", "cmt": "id8475: другое типы судов  ()\nhttps:\/\/russianplanes.net\/id262361", "desc": "id8475: другое типы судов  ()\nhttps:\/\/russianplanes.net\/id262361" }, "geometry": { "type": "Point", "coordinates": [ 20.451841056347, 44.823441268769002 ] } },
{ "type": "Feature", "properties": { "name": "другое типы судов", "cmt": "id8492: другое типы судов 103 ()\nhttps:\/\/russianplanes.net\/id0", "desc": "id8492: другое типы судов 103 ()\nhttps:\/\/russianplanes.net\/id0" }, "geometry": { "type": "Point", "coordinates": [ 65.800238549708993, 38.868648596427001 ] } },
{ "type": "Feature", "properties": { "name": "Передний створный маяк залива Находка", "cmt": "id8495: Передний створный маяк залива Находка  ()\nhttps:\/\/russianplanes.net\/id264352", "desc": "id8495: Передний створный маяк залива Находка  ()\nhttps:\/\/russianplanes.net\/id264352" }, "geometry": { "type": "Point", "coordinates": [ 132.938824296, 42.839243658069996 ] } },
{ "type": "Feature", "properties": { "name": "Маяк на мысе Бринера", "cmt": "id8496: Маяк на мысе Бринера \nhttps:\/\/russianplanes.net\/id251820", "desc": "id8496: Маяк на мысе Бринера \nhttps:\/\/russianplanes.net\/id251820" }, "geometry": { "type": "Point", "coordinates": [ 135.840902030470005, 44.342968290617002 ] } },
{ "type": "Feature", "properties": { "name": "Сочинский маяк", "cmt": "id8497: Сочинский маяк \nhttps:\/\/russianplanes.net\/id263681", "desc": "id8497: Сочинский маяк \nhttps:\/\/russianplanes.net\/id263681" }, "geometry": { "type": "Point", "coordinates": [ 39.720455110072997, 43.579073478224998 ] } },
{ "type": "Feature", "properties": { "name": "Токаревский маяк", "cmt": "id8498: Токаревский маяк  ()\nhttps:\/\/russianplanes.net\/id268903", "desc": "id8498: Токаревский маяк  ()\nhttps:\/\/russianplanes.net\/id268903" }, "geometry": { "type": "Point", "coordinates": [ 131.843176782130001, 43.073139617388001 ] } },
{ "type": "Feature", "properties": { "name": "Задний створный маяк залива Находка", "cmt": "id8499: Задний створный маяк залива Находка  ()\nhttps:\/\/russianplanes.net\/id0", "desc": "id8499: Задний створный маяк залива Находка  ()\nhttps:\/\/russianplanes.net\/id0" }, "geometry": { "type": "Point", "coordinates": [ 132.938784062860009, 42.853363439873 ] } },
{ "type": "Feature", "properties": { "name": "Маяк Скрыплёва", "cmt": "id8506: Маяк Скрыплёва  ()\nhttps:\/\/russianplanes.net\/id264551", "desc": "id8506: Маяк Скрыплёва  ()\nhttps:\/\/russianplanes.net\/id264551" }, "geometry": { "type": "Point", "coordinates": [ 131.952680647369988, 43.028741329897997 ] } },
{ "type": "Feature", "properties": { "name": "Катер на воздушной подушке", "cmt": "id8709: Катер на воздушной подушке  ()\nhttps:\/\/russianplanes.net\/id271147", "desc": "id8709: Катер на воздушной подушке  ()\nhttps:\/\/russianplanes.net\/id271147" }, "geometry": { "type": "Point", "coordinates": [ 38.290719687939003, 56.033373587263 ] } },
{ "type": "Feature", "properties": { "name": "Катер посыльного", "cmt": "id8710: Катер посыльного Москва\nhttps:\/\/russianplanes.net\/id271152", "desc": "id8710: Катер посыльного Москва\nhttps:\/\/russianplanes.net\/id271152" }, "geometry": { "type": "Point", "coordinates": [ 38.289394676684999, 56.033634338738999 ] } },
{ "type": "Feature", "properties": { "name": "А-3ПС", "cmt": "id8711: А-3ПС Р95-27ИР\nhttps:\/\/russianplanes.net\/id271154", "desc": "id8711: А-3ПС Р95-27ИР\nhttps:\/\/russianplanes.net\/id271154" }, "geometry": { "type": "Point", "coordinates": [ 38.289523422717998, 56.033277678231997 ] } },
{ "type": "Feature", "properties": { "name": "Суджукский маяк", "cmt": "id8720: Суджукский маяк  ()\nhttps:\/\/russianplanes.net\/id271635", "desc": "id8720: Суджукский маяк  ()\nhttps:\/\/russianplanes.net\/id271635" }, "geometry": { "type": "Point", "coordinates": [ 37.823854923280997, 44.663805980143003 ] } },
{ "type": "Feature", "properties": { "name": "Маяк восточного мола", "cmt": "id8721: Маяк восточного мола  ()\nhttps:\/\/russianplanes.net\/id271636", "desc": "id8721: Маяк восточного мола  ()\nhttps:\/\/russianplanes.net\/id271636" }, "geometry": { "type": "Point", "coordinates": [ 37.801131248506998, 44.722091351745 ] } },
{ "type": "Feature", "properties": { "name": "другое типы судов", "cmt": "id8819: другое типы судов  ()\nhttps:\/\/russianplanes.net\/id0", "desc": "id8819: другое типы судов  ()\nhttps:\/\/russianplanes.net\/id0" }, "geometry": { "type": "Point", "coordinates": [ 35.703380405902998, 65.024156444062001 ] } },
{ "type": "Feature", "properties": { "name": "Пр. 343 - Волга", "cmt": "id8825: Пр. 343 - Волга \nhttps:\/\/russianplanes.net\/id243563", "desc": "id8825: Пр. 343 - Волга \nhttps:\/\/russianplanes.net\/id243563" }, "geometry": { "type": "Point", "coordinates": [ 37.508823573588998, 55.962867187485998 ] } },
{ "type": "Feature", "properties": { "name": "Декоративный маяк в гостиничном комплексе \"Рыбная деревня\"", "cmt": "id8844: Декоративный маяк в гостиничном комплексе \"Рыбная деревня\" \nhttps:\/\/russianplanes.net\/id264549", "desc": "id8844: Декоративный маяк в гостиничном комплексе \"Рыбная деревня\" \nhttps:\/\/russianplanes.net\/id264549" }, "geometry": { "type": "Point", "coordinates": [ 20.514566659894999, 54.705089490749998 ] } },
{ "type": "Feature", "properties": { "name": "Декоративный маяк в парке Птичья гавань", "cmt": "id8845: Декоративный маяк в парке Птичья гавань \nhttps:\/\/russianplanes.net\/id264550", "desc": "id8845: Декоративный маяк в парке Птичья гавань \nhttps:\/\/russianplanes.net\/id264550" }, "geometry": { "type": "Point", "coordinates": [ 73.350752949682004, 54.970424448427998 ] } },
{ "type": "Feature", "properties": { "name": "Входной маяк в бухту Парис", "cmt": "id8846: Входной маяк в бухту Парис  ()\nhttps:\/\/russianplanes.net\/id264553", "desc": "id8846: Входной маяк в бухту Парис  ()\nhttps:\/\/russianplanes.net\/id264553" }, "geometry": { "type": "Point", "coordinates": [ 131.927468419109999, 43.019927627667002 ] } },
{ "type": "Feature", "properties": { "name": "Мурманский мемориальный маяк", "cmt": "id8847: Мурманский мемориальный маяк \nhttps:\/\/russianplanes.net\/id275461", "desc": "id8847: Мурманский мемориальный маяк \nhttps:\/\/russianplanes.net\/id275461" }, "geometry": { "type": "Point", "coordinates": [ 33.093913435969, 68.985442478265 ] } },
{ "type": "Feature", "properties": { "name": "Маяк", "cmt": "id8848: Маяк  ()\nhttps:\/\/russianplanes.net\/id275462", "desc": "id8848: Маяк  ()\nhttps:\/\/russianplanes.net\/id275462" }, "geometry": { "type": "Point", "coordinates": [ 33.056526660985, 68.975728688656005 ] } },
{ "type": "Feature", "properties": { "name": "Маяк мыса Лихачева", "cmt": "id8849: Маяк мыса Лихачева  ()\nhttps:\/\/russianplanes.net\/id275463", "desc": "id8849: Маяк мыса Лихачева  ()\nhttps:\/\/russianplanes.net\/id275463" }, "geometry": { "type": "Point", "coordinates": [ 132.850226640599999, 42.734530888743997 ] } },
{ "type": "Feature", "properties": { "name": "Кронштадтский задний маяк (маяк Каботажной гавани)", "cmt": "id8850: Кронштадтский задний маяк (маяк Каботажной гавани)  ()\nhttps:\/\/russianplanes.net\/id275464", "desc": "id8850: Кронштадтский задний маяк (маяк Каботажной гавани)  ()\nhttps:\/\/russianplanes.net\/id275464" }, "geometry": { "type": "Point", "coordinates": [ 29.762092709771, 59.983991934466999 ] } },
{ "type": "Feature", "properties": { "name": "Анапский маяк", "cmt": "id8851: Анапский маяк \nhttps:\/\/russianplanes.net\/id275465", "desc": "id8851: Анапский маяк \nhttps:\/\/russianplanes.net\/id275465" }, "geometry": { "type": "Point", "coordinates": [ 37.299059271845003, 44.887980127174004 ] } },
{ "type": "Feature", "properties": { "name": "Геленджикский входной маяк", "cmt": "id8852: Геленджикский входной маяк  ()\nhttps:\/\/russianplanes.net\/id275466", "desc": "id8852: Геленджикский входной маяк  ()\nhttps:\/\/russianplanes.net\/id275466" }, "geometry": { "type": "Point", "coordinates": [ 38.050067067179, 44.550205573825998 ] } },
{ "type": "Feature", "properties": { "name": "Махачкалинский маяк", "cmt": "id8853: Махачкалинский маяк  ()\nhttps:\/\/russianplanes.net\/id0", "desc": "id8853: Махачкалинский маяк  ()\nhttps:\/\/russianplanes.net\/id0" }, "geometry": { "type": "Point", "coordinates": [ 47.498770594630003, 42.985368883706002 ] } },
{ "type": "Feature", "properties": { "name": "Дербентский маяк", "cmt": "id8854: Дербентский маяк  ()\nhttps:\/\/russianplanes.net\/id0", "desc": "id8854: Дербентский маяк  ()\nhttps:\/\/russianplanes.net\/id0" }, "geometry": { "type": "Point", "coordinates": [ 48.295968175097997, 42.061403561791998 ] } },
{ "type": "Feature", "properties": { "name": "Сулакский маяк", "cmt": "id8855: Сулакский маяк \nhttps:\/\/russianplanes.net\/id0", "desc": "id8855: Сулакский маяк \nhttps:\/\/russianplanes.net\/id0" }, "geometry": { "type": "Point", "coordinates": [ 47.544552684320998, 43.255954690396003 ] } },
{ "type": "Feature", "properties": { "name": "Адлерский маяк", "cmt": "id8856: Адлерский маяк  ()\nhttps:\/\/russianplanes.net\/id0", "desc": "id8856: Адлерский маяк  ()\nhttps:\/\/russianplanes.net\/id0" }, "geometry": { "type": "Point", "coordinates": [ 39.915138960278, 43.424717992620998 ] } },
{ "type": "Feature", "properties": { "name": "Ай-Тодорский маяк", "cmt": "id8857: Ай-Тодорский маяк \nhttps:\/\/russianplanes.net\/id0", "desc": "id8857: Ай-Тодорский маяк \nhttps:\/\/russianplanes.net\/id0" }, "geometry": { "type": "Point", "coordinates": [ 34.122423648931999, 44.428449822320999 ] } },
{ "type": "Feature", "properties": { "name": "Батумский маяк", "cmt": "id8858: Батумский маяк \nhttps:\/\/russianplanes.net\/id0", "desc": "id8858: Батумский маяк \nhttps:\/\/russianplanes.net\/id0" }, "geometry": { "type": "Point", "coordinates": [ 41.641140461196997, 41.655854310004997 ] } },
{ "type": "Feature", "properties": { "name": "Воронцовский маяк", "cmt": "id8859: Воронцовский маяк \nhttps:\/\/russianplanes.net\/id0", "desc": "id8859: Воронцовский маяк \nhttps:\/\/russianplanes.net\/id0" }, "geometry": { "type": "Point", "coordinates": [ 30.760069727929999, 46.496522227545 ] } },
{ "type": "Feature", "properties": { "name": "Геленджикский передний створный маяк", "cmt": "id8860: Геленджикский передний створный маяк \nhttps:\/\/russianplanes.net\/id0", "desc": "id8860: Геленджикский передний створный маяк \nhttps:\/\/russianplanes.net\/id0" }, "geometry": { "type": "Point", "coordinates": [ 38.068220257791999, 44.574468904622002 ] } },
{ "type": "Feature", "properties": { "name": "Дообский маяк", "cmt": "id8861: Дообский маяк \nhttps:\/\/russianplanes.net\/id0", "desc": "id8861: Дообский маяк \nhttps:\/\/russianplanes.net\/id0" }, "geometry": { "type": "Point", "coordinates": [ 37.910452723535997, 44.627258116358 ] } },
{ "type": "Feature", "properties": { "name": "Евпаторийский маяк", "cmt": "id8862: Евпаторийский маяк \nhttps:\/\/russianplanes.net\/id0", "desc": "id8862: Евпаторийский маяк \nhttps:\/\/russianplanes.net\/id0" }, "geometry": { "type": "Point", "coordinates": [ 33.269185066256, 45.151025269879 ] } },
{ "type": "Feature", "properties": { "name": "Инкерманский передний маяк", "cmt": "id8863: Инкерманский передний маяк \nhttps:\/\/russianplanes.net\/id0", "desc": "id8863: Инкерманский передний маяк \nhttps:\/\/russianplanes.net\/id0" }, "geometry": { "type": "Point", "coordinates": [ 33.588477372958998, 44.618427606867002 ] } },
{ "type": "Feature", "properties": { "name": "Инкерманский задний маяк", "cmt": "id8864: Инкерманский задний маяк \nhttps:\/\/russianplanes.net\/id0", "desc": "id8864: Инкерманский задний маяк \nhttps:\/\/russianplanes.net\/id0" }, "geometry": { "type": "Point", "coordinates": [ 33.629303813013003, 44.616047935205998 ] } },
{ "type": "Feature", "properties": { "name": "Кадошский (Кодошский) маяк", "cmt": "id8865: Кадошский (Кодошский) маяк \nhttps:\/\/russianplanes.net\/id279576", "desc": "id8865: Кадошский (Кодошский) маяк \nhttps:\/\/russianplanes.net\/id279576" }, "geometry": { "type": "Point", "coordinates": [ 39.036540627511997, 44.098301947232002 ] } },
{ "type": "Feature", "properties": { "name": "Меганомский маяк", "cmt": "id8866: Меганомский маяк \nhttps:\/\/russianplanes.net\/id0", "desc": "id8866: Меганомский маяк \nhttps:\/\/russianplanes.net\/id0" }, "geometry": { "type": "Point", "coordinates": [ 35.080121398004998, 44.793632167292003 ] } },
{ "type": "Feature", "properties": { "name": "Одесский маяк", "cmt": "id8867: Одесский маяк  ()\nhttps:\/\/russianplanes.net\/id0", "desc": "id8867: Одесский маяк  ()\nhttps:\/\/russianplanes.net\/id0" }, "geometry": { "type": "Point", "coordinates": [ 30.747556687384002, 46.377363753116001 ] } },
{ "type": "Feature", "properties": { "name": "Маяк русский задний (Русская коса)", "cmt": "id8868: Маяк русский задний (Русская коса) \nhttps:\/\/russianplanes.net\/id0", "desc": "id8868: Маяк русский задний (Русская коса) \nhttps:\/\/russianplanes.net\/id0" }, "geometry": { "type": "Point", "coordinates": [ 31.935370802912001, 46.747240633220997 ] } },
{ "type": "Feature", "properties": { "name": "Сарычский маяк", "cmt": "id8869: Сарычский маяк \nhttps:\/\/russianplanes.net\/id0", "desc": "id8869: Сарычский маяк \nhttps:\/\/russianplanes.net\/id0" }, "geometry": { "type": "Point", "coordinates": [ 33.739095210930998, 44.387954277181997 ] } },
{ "type": "Feature", "properties": { "name": "Сухумский маяк", "cmt": "id8870: Сухумский маяк \nhttps:\/\/russianplanes.net\/id0", "desc": "id8870: Сухумский маяк \nhttps:\/\/russianplanes.net\/id0" }, "geometry": { "type": "Point", "coordinates": [ 40.971732974085, 42.981381745775003 ] } },
{ "type": "Feature", "properties": { "name": "Тарханкутский маяк", "cmt": "id8871: Тарханкутский маяк \nhttps:\/\/russianplanes.net\/id0", "desc": "id8871: Тарханкутский маяк \nhttps:\/\/russianplanes.net\/id0" }, "geometry": { "type": "Point", "coordinates": [ 32.494176864657, 45.346982603302997 ] } },
{ "type": "Feature", "properties": { "name": "Темрюкский маяк", "cmt": "id8872: Темрюкский маяк \nhttps:\/\/russianplanes.net\/id0", "desc": "id8872: Темрюкский маяк \nhttps:\/\/russianplanes.net\/id0" }, "geometry": { "type": "Point", "coordinates": [ 37.231354951890999, 45.330625220259002 ] } },
{ "type": "Feature", "properties": { "name": "Тендровский маяк", "cmt": "id8873: Тендровский маяк \nhttps:\/\/russianplanes.net\/id0", "desc": "id8873: Тендровский маяк \nhttps:\/\/russianplanes.net\/id0" }, "geometry": { "type": "Point", "coordinates": [ 31.516402244632999, 46.350229109423999 ] } },
{ "type": "Feature", "properties": { "name": "Утришский маяк", "cmt": "id8874: Утришский маяк \nhttps:\/\/russianplanes.net\/id0", "desc": "id8874: Утришский маяк \nhttps:\/\/russianplanes.net\/id0" }, "geometry": { "type": "Point", "coordinates": [ 37.377814292940002, 44.758697519988999 ] } },
{ "type": "Feature", "properties": { "name": "Херсонесский маяк", "cmt": "id8875: Херсонесский маяк \nhttps:\/\/russianplanes.net\/id0", "desc": "id8875: Херсонесский маяк \nhttps:\/\/russianplanes.net\/id0" }, "geometry": { "type": "Point", "coordinates": [ 33.378932476370998, 44.583316794943002 ] } },
{ "type": "Feature", "properties": { "name": "Чушкинский передний створный маяк", "cmt": "id8876: Чушкинский передний створный маяк \nhttps:\/\/russianplanes.net\/id0", "desc": "id8876: Чушкинский передний створный маяк \nhttps:\/\/russianplanes.net\/id0" }, "geometry": { "type": "Point", "coordinates": [ 36.643072486022, 45.319906272324999 ] } },
{ "type": "Feature", "properties": { "name": "Ялтинский маяк", "cmt": "id8877: Ялтинский маяк \nhttps:\/\/russianplanes.net\/id280905", "desc": "id8877: Ялтинский маяк \nhttps:\/\/russianplanes.net\/id280905" }, "geometry": { "type": "Point", "coordinates": [ 34.169103741679002, 44.491383848593003 ] } },
{ "type": "Feature", "properties": { "name": "Абрамовский маяк", "cmt": "id8879: Абрамовский маяк  ()\nhttps:\/\/russianplanes.net\/id0", "desc": "id8879: Абрамовский маяк  ()\nhttps:\/\/russianplanes.net\/id0" }, "geometry": { "type": "Point", "coordinates": [ 43.267365933642999, 66.407883341982 ] } },
{ "type": "Feature", "properties": { "name": "Жижгинский маяк", "cmt": "id8880: Жижгинский маяк  ()\nhttps:\/\/russianplanes.net\/id0", "desc": "id8880: Жижгинский маяк  ()\nhttps:\/\/russianplanes.net\/id0" }, "geometry": { "type": "Point", "coordinates": [ 36.815584659707, 65.203264753601999 ] } },
{ "type": "Feature", "properties": { "name": "Жужмуйский маяк", "cmt": "id8881: Жужмуйский маяк  ()\nhttps:\/\/russianplanes.net\/id0", "desc": "id8881: Жужмуйский маяк  ()\nhttps:\/\/russianplanes.net\/id0" }, "geometry": { "type": "Point", "coordinates": [ 35.559104919957001, 64.678827586360001 ] } },
{ "type": "Feature", "properties": { "name": "Зимнегорский маяк", "cmt": "id8882: Зимнегорский маяк  ()\nhttps:\/\/russianplanes.net\/id0", "desc": "id8882: Зимнегорский маяк  ()\nhttps:\/\/russianplanes.net\/id0" }, "geometry": { "type": "Point", "coordinates": [ 39.713593483102002, 65.480474152970999 ] } },
{ "type": "Feature", "properties": { "name": "Инцысский маяк", "cmt": "id8883: Инцысский маяк  ()\nhttps:\/\/russianplanes.net\/id0", "desc": "id8883: Инцысский маяк  ()\nhttps:\/\/russianplanes.net\/id0" }, "geometry": { "type": "Point", "coordinates": [ 40.712126256475997, 65.967388733180002 ] } },
{ "type": "Feature", "properties": { "name": "Кильдинский северный маяк", "cmt": "id8884: Кильдинский северный маяк  ()\nhttps:\/\/russianplanes.net\/id0", "desc": "id8884: Кильдинский северный маяк  ()\nhttps:\/\/russianplanes.net\/id0" }, "geometry": { "type": "Point", "coordinates": [ 34.148623466754003, 69.382298501517994 ] } },
{ "type": "Feature", "properties": { "name": "Моржовский маяк", "cmt": "id8885: Моржовский маяк  ()\nhttps:\/\/russianplanes.net\/id0", "desc": "id8885: Моржовский маяк  ()\nhttps:\/\/russianplanes.net\/id0" }, "geometry": { "type": "Point", "coordinates": [ 42.472723960909001, 66.723998521531001 ] } },
{ "type": "Feature", "properties": { "name": "Мудьюгский маяк", "cmt": "id8886: Мудьюгский маяк  ()\nhttps:\/\/russianplanes.net\/id0", "desc": "id8886: Мудьюгский маяк  ()\nhttps:\/\/russianplanes.net\/id0" }, "geometry": { "type": "Point", "coordinates": [ 40.226500510907996, 64.916301665459002 ] } },
{ "type": "Feature", "properties": { "name": "Никодимский маяк", "cmt": "id8887: Никодимский маяк  ()\nhttps:\/\/russianplanes.net\/id276249", "desc": "id8887: Никодимский маяк  ()\nhttps:\/\/russianplanes.net\/id276249" }, "geometry": { "type": "Point", "coordinates": [ 39.096899986398, 66.106582044286 ] } },
{ "type": "Feature", "properties": { "name": "Ромбакский маяк", "cmt": "id8888: Ромбакский маяк  ()\nhttps:\/\/russianplanes.net\/id0", "desc": "id8888: Ромбакский маяк  ()\nhttps:\/\/russianplanes.net\/id0" }, "geometry": { "type": "Point", "coordinates": [ 35.030422211020998, 65.028710167279002 ] } },
{ "type": "Feature", "properties": { "name": "Русский маяк (Большой Олений)", "cmt": "id8889: Русский маяк (Большой Олений)  ()\nhttps:\/\/russianplanes.net\/id0", "desc": "id8889: Русский маяк (Большой Олений)  ()\nhttps:\/\/russianplanes.net\/id0" }, "geometry": { "type": "Point", "coordinates": [ 36.345133780777999, 69.078454389740997 ] } },
{ "type": "Feature", "properties": { "name": "Сетьнаволокский маяк", "cmt": "id8890: Сетьнаволокский маяк  ()\nhttps:\/\/russianplanes.net\/id0", "desc": "id8890: Сетьнаволокский маяк  ()\nhttps:\/\/russianplanes.net\/id0" }, "geometry": { "type": "Point", "coordinates": [ 33.497477531564002, 69.398058894268999 ] } },
{ "type": "Feature", "properties": { "name": "Соловецкий маяк", "cmt": "id8891: Соловецкий маяк  ()\nhttps:\/\/russianplanes.net\/id0", "desc": "id8891: Соловецкий маяк  ()\nhttps:\/\/russianplanes.net\/id0" }, "geometry": { "type": "Point", "coordinates": [ 35.586231708657998, 65.104635763201998 ] } },
{ "type": "Feature", "properties": { "name": "Сосновецкий маяк", "cmt": "id8892: Сосновецкий маяк  ()\nhttps:\/\/russianplanes.net\/id0", "desc": "id8892: Сосновецкий маяк  ()\nhttps:\/\/russianplanes.net\/id0" }, "geometry": { "type": "Point", "coordinates": [ 40.684360027444001, 66.490137963717999 ] } },
{ "type": "Feature", "properties": { "name": "Териберский маяк", "cmt": "id8893: Териберский маяк  ()\nhttps:\/\/russianplanes.net\/id0", "desc": "id8893: Териберский маяк  ()\nhttps:\/\/russianplanes.net\/id0" }, "geometry": { "type": "Point", "coordinates": [ 35.156610488957, 69.250909845162994 ] } },
{ "type": "Feature", "properties": { "name": "Харловский маяк", "cmt": "id8894: Харловский маяк  ()\nhttps:\/\/russianplanes.net\/id0", "desc": "id8894: Харловский маяк  ()\nhttps:\/\/russianplanes.net\/id0" }, "geometry": { "type": "Point", "coordinates": [ 37.322256089173997, 68.809772658681993 ] } },
{ "type": "Feature", "properties": { "name": "Цыпнаволокский маяк", "cmt": "id8895: Цыпнаволокский маяк  ()\nhttps:\/\/russianplanes.net\/id0", "desc": "id8895: Цыпнаволокский маяк  ()\nhttps:\/\/russianplanes.net\/id0" }, "geometry": { "type": "Point", "coordinates": [ 33.093451023233001, 69.732136201703995 ] } },
{ "type": "Feature", "properties": { "name": "Чёшский маяк (Святой Нос)", "cmt": "id8896: Чёшский маяк (Святой Нос) \nhttps:\/\/russianplanes.net\/id0", "desc": "id8896: Чёшский маяк (Святой Нос) \nhttps:\/\/russianplanes.net\/id0" }, "geometry": { "type": "Point", "coordinates": [ 48.595803737771, 67.911640358772999 ] } },
{ "type": "Feature", "properties": { "name": "Шойнский маяк", "cmt": "id8897: Шойнский маяк  ()\nhttps:\/\/russianplanes.net\/id0", "desc": "id8897: Шойнский маяк  ()\nhttps:\/\/russianplanes.net\/id0" }, "geometry": { "type": "Point", "coordinates": [ 44.138199806475001, 67.879087187869999 ] } },
{ "type": "Feature", "properties": { "name": "Шлюз №1 КиМ (Иваньковская ГЭС)", "cmt": "id8905: Шлюз №1 КиМ (Иваньковская ГЭС)  ()\nhttps:\/\/russianplanes.net\/id258543", "desc": "id8905: Шлюз №1 КиМ (Иваньковская ГЭС)  ()\nhttps:\/\/russianplanes.net\/id258543" }, "geometry": { "type": "Point", "coordinates": [ 37.139629840457999, 56.735265385220998 ] } },
{ "type": "Feature", "properties": { "name": "Шлюз №2 КиМ (Темпы)", "cmt": "id8906: Шлюз №2 КиМ (Темпы)  ()\nhttps:\/\/russianplanes.net\/id0", "desc": "id8906: Шлюз №2 КиМ (Темпы)  ()\nhttps:\/\/russianplanes.net\/id0" }, "geometry": { "type": "Point", "coordinates": [ 37.285344601005001, 56.636336985885002 ] } },
{ "type": "Feature", "properties": { "name": "Шлюз №3 КиМ (Яхрома)", "cmt": "id8907: Шлюз №3 КиМ (Яхрома)  ()\nhttps:\/\/russianplanes.net\/id275764", "desc": "id8907: Шлюз №3 КиМ (Яхрома)  ()\nhttps:\/\/russianplanes.net\/id275764" }, "geometry": { "type": "Point", "coordinates": [ 37.500307560293997, 56.284551407256998 ] } },
{ "type": "Feature", "properties": { "name": "Шлюз №4 КиМ (Деденево)", "cmt": "id8908: Шлюз №4 КиМ (Деденево)  ()\nhttps:\/\/russianplanes.net\/id275766", "desc": "id8908: Шлюз №4 КиМ (Деденево)  ()\nhttps:\/\/russianplanes.net\/id275766" }, "geometry": { "type": "Point", "coordinates": [ 37.521814584798001, 56.252362889063001 ] } },
{ "type": "Feature", "properties": { "name": "Шлюз №5 КиМ (Икша)", "cmt": "id8909: Шлюз №5 КиМ (Икша)  ()\nhttps:\/\/russianplanes.net\/id265709", "desc": "id8909: Шлюз №5 КиМ (Икша)  ()\nhttps:\/\/russianplanes.net\/id265709" }, "geometry": { "type": "Point", "coordinates": [ 37.522336006296001, 56.186934986556999 ] } },
{ "type": "Feature", "properties": { "name": "Шлюз №6 КиМ (Икша)", "cmt": "id8910: Шлюз №6 КиМ (Икша)  ()\nhttps:\/\/russianplanes.net\/id275760", "desc": "id8910: Шлюз №6 КиМ (Икша)  ()\nhttps:\/\/russianplanes.net\/id275760" }, "geometry": { "type": "Point", "coordinates": [ 37.511555671299, 56.167497487268001 ] } },
{ "type": "Feature", "properties": { "name": "Шлюз №7 КиМ (Тушино)", "cmt": "id8911: Шлюз №7 КиМ (Тушино)  ()\nhttps:\/\/russianplanes.net\/id0", "desc": "id8911: Шлюз №7 КиМ (Тушино)  ()\nhttps:\/\/russianplanes.net\/id0" }, "geometry": { "type": "Point", "coordinates": [ 37.461928367483999, 55.832030597554997 ] } },
{ "type": "Feature", "properties": { "name": "Шлюз №8 КиМ (Тушино)", "cmt": "id8912: Шлюз №8 КиМ (Тушино)  ()\nhttps:\/\/russianplanes.net\/id284171", "desc": "id8912: Шлюз №8 КиМ (Тушино)  ()\nhttps:\/\/russianplanes.net\/id284171" }, "geometry": { "type": "Point", "coordinates": [ 37.450083732637999, 55.815711824024 ] } },
{ "type": "Feature", "properties": { "name": "Шлюз №9 КиМ (Карамышевский)", "cmt": "id8913: Шлюз №9 КиМ (Карамышевский) \nhttps:\/\/russianplanes.net\/id0", "desc": "id8913: Шлюз №9 КиМ (Карамышевский) \nhttps:\/\/russianplanes.net\/id0" }, "geometry": { "type": "Point", "coordinates": [ 37.473193645510001, 55.767249175594003 ] } },
{ "type": "Feature", "properties": { "name": "Шлюз №10 КиМ\/№1 МШРС (Перервинская ГЭС)", "cmt": "id8915: Шлюз №10 КиМ\/№1 МШРС (Перервинская ГЭС)  ()\nhttps:\/\/russianplanes.net\/id0", "desc": "id8915: Шлюз №10 КиМ\/№1 МШРС (Перервинская ГЭС)  ()\nhttps:\/\/russianplanes.net\/id0" }, "geometry": { "type": "Point", "coordinates": [ 37.694911479883999, 55.674427683087998 ] } },
{ "type": "Feature", "properties": { "name": "Шлюз №11 КиМ (Перервинская ГЭС)", "cmt": "id8916: Шлюз №11 КиМ (Перервинская ГЭС)  ()\nhttps:\/\/russianplanes.net\/id0", "desc": "id8916: Шлюз №11 КиМ (Перервинская ГЭС)  ()\nhttps:\/\/russianplanes.net\/id0" }, "geometry": { "type": "Point", "coordinates": [ 37.705408573183, 55.672242385906003 ] } },
{ "type": "Feature", "properties": { "name": "Шлюз №11\/№2 МШРС (Беседы, Трудкоммуна)", "cmt": "id8917: Шлюз №11\/№2 МШРС (Беседы, Трудкоммуна)  ()\nhttps:\/\/russianplanes.net\/id0", "desc": "id8917: Шлюз №11\/№2 МШРС (Беседы, Трудкоммуна)  ()\nhttps:\/\/russianplanes.net\/id0" }, "geometry": { "type": "Point", "coordinates": [ 37.821019291714002, 55.617480608641998 ] } },
{ "type": "Feature", "properties": { "name": "Шлюз №12\/№3 МШРС (Андреевка, Лыткарино)", "cmt": "id8918: Шлюз №12\/№3 МШРС (Андреевка, Лыткарино)  ()\nhttps:\/\/russianplanes.net\/id0", "desc": "id8918: Шлюз №12\/№3 МШРС (Андреевка, Лыткарино)  ()\nhttps:\/\/russianplanes.net\/id0" }, "geometry": { "type": "Point", "coordinates": [ 37.930248498851, 55.555896131899999 ] } },
{ "type": "Feature", "properties": { "name": "Шлюз №13\/№4 МШРС (Софьино)", "cmt": "id8919: Шлюз №13\/№4 МШРС (Софьино)  ()\nhttps:\/\/russianplanes.net\/id0", "desc": "id8919: Шлюз №13\/№4 МШРС (Софьино)  ()\nhttps:\/\/russianplanes.net\/id0" }, "geometry": { "type": "Point", "coordinates": [ 38.202960490853002, 55.485080253250999 ] } },
{ "type": "Feature", "properties": { "name": "Шлюз №14\/№5 МШРС (Фаустово)", "cmt": "id8920: Шлюз №14\/№5 МШРС (Фаустово)  ()\nhttps:\/\/russianplanes.net\/id0", "desc": "id8920: Шлюз №14\/№5 МШРС (Фаустово)  ()\nhttps:\/\/russianplanes.net\/id0" }, "geometry": { "type": "Point", "coordinates": [ 38.508620739049, 55.409470337172003 ] } },
{ "type": "Feature", "properties": { "name": "Шлюз №15\/№6 МШРС (Северка)", "cmt": "id8921: Шлюз №15\/№6 МШРС (Северка)  ()\nhttps:\/\/russianplanes.net\/id0", "desc": "id8921: Шлюз №15\/№6 МШРС (Северка)  ()\nhttps:\/\/russianplanes.net\/id0" }, "geometry": { "type": "Point", "coordinates": [ 38.752079486912002, 55.161965180491997 ] } },
{ "type": "Feature", "properties": { "name": "Белоомутский шлюз", "cmt": "id8922: Белоомутский шлюз  ()\nhttps:\/\/russianplanes.net\/id0", "desc": "id8922: Белоомутский шлюз  ()\nhttps:\/\/russianplanes.net\/id0" }, "geometry": { "type": "Point", "coordinates": [ 39.255680322712998, 54.948584106633 ] } },
{ "type": "Feature", "properties": { "name": "Кузьминский шлюз", "cmt": "id8923: Кузьминский шлюз  ()\nhttps:\/\/russianplanes.net\/id0", "desc": "id8923: Кузьминский шлюз  ()\nhttps:\/\/russianplanes.net\/id0" }, "geometry": { "type": "Point", "coordinates": [ 39.688112497787998, 54.872667031867003 ] } },
{ "type": "Feature", "properties": { "name": "Шлюз №10-У (Угличская ГЭС)", "cmt": "id8924: Шлюз №10-У (Угличская ГЭС) \nhttps:\/\/russianplanes.net\/id208489", "desc": "id8924: Шлюз №10-У (Угличская ГЭС) \nhttps:\/\/russianplanes.net\/id208489" }, "geometry": { "type": "Point", "coordinates": [ 38.296865701740998, 57.530217208598003 ] } },
{ "type": "Feature", "properties": { "name": "Шлюзы №11\/12 (Рыбинская ГЭС)", "cmt": "id8925: Шлюзы №11\/12 (Рыбинская ГЭС) \nhttps:\/\/russianplanes.net\/id208869", "desc": "id8925: Шлюзы №11\/12 (Рыбинская ГЭС) \nhttps:\/\/russianplanes.net\/id208869" }, "geometry": { "type": "Point", "coordinates": [ 38.70877361278, 58.100009027707998 ] } },
{ "type": "Feature", "properties": { "name": "Шлюзы №13\/14 (Горьковская ГЭС)", "cmt": "id8926: Шлюзы №13\/14 (Горьковская ГЭС) \nhttps:\/\/russianplanes.net\/id0", "desc": "id8926: Шлюзы №13\/14 (Горьковская ГЭС) \nhttps:\/\/russianplanes.net\/id0" }, "geometry": { "type": "Point", "coordinates": [ 43.417048216323998, 56.677302000076999 ] } },
{ "type": "Feature", "properties": { "name": "Шлюзы №15\/16 (Горьковская ГЭС)", "cmt": "id8927: Шлюзы №15\/16 (Горьковская ГЭС) \nhttps:\/\/russianplanes.net\/id0", "desc": "id8927: Шлюзы №15\/16 (Горьковская ГЭС) \nhttps:\/\/russianplanes.net\/id0" }, "geometry": { "type": "Point", "coordinates": [ 43.440070152609998, 56.661477017099003 ] } },
{ "type": "Feature", "properties": { "name": "Шлюзы №17\/18 (Чебоксарская ГЭС)", "cmt": "id8928: Шлюзы №17\/18 (Чебоксарская ГЭС) \nhttps:\/\/russianplanes.net\/id0", "desc": "id8928: Шлюзы №17\/18 (Чебоксарская ГЭС) \nhttps:\/\/russianplanes.net\/id0" }, "geometry": { "type": "Point", "coordinates": [ 47.469280242985, 56.133723033122003 ] } },
{ "type": "Feature", "properties": { "name": "Шлюзы №21\/22 (Жигулёвская ГЭС)", "cmt": "id8929: Шлюзы №21\/22 (Жигулёвская ГЭС) \nhttps:\/\/russianplanes.net\/id277773", "desc": "id8929: Шлюзы №21\/22 (Жигулёвская ГЭС) \nhttps:\/\/russianplanes.net\/id277773" }, "geometry": { "type": "Point", "coordinates": [ 49.500742435520998, 53.465303770893001 ] } },
{ "type": "Feature", "properties": { "name": "Шлюзы №23\/24 (Жигулёвская ГЭС)", "cmt": "id8930: Шлюзы №23\/24 (Жигулёвская ГЭС) \nhttps:\/\/russianplanes.net\/id278777", "desc": "id8930: Шлюзы №23\/24 (Жигулёвская ГЭС) \nhttps:\/\/russianplanes.net\/id278777" }, "geometry": { "type": "Point", "coordinates": [ 49.563227176731999, 53.459811892384998 ] } },
{ "type": "Feature", "properties": { "name": "Шлюзы №25\/26 (Саратовская ГЭС)", "cmt": "id8931: Шлюзы №25\/26 (Саратовская ГЭС) \nhttps:\/\/russianplanes.net\/id279338", "desc": "id8931: Шлюзы №25\/26 (Саратовская ГЭС) \nhttps:\/\/russianplanes.net\/id279338" }, "geometry": { "type": "Point", "coordinates": [ 47.772284030980003, 52.016569361342 ] } },
{ "type": "Feature", "properties": { "name": "Шлюзы №30\/31 (Волжская ГЭС)", "cmt": "id8932: Шлюзы №30\/31 (Волжская ГЭС) \nhttps:\/\/russianplanes.net\/id280113", "desc": "id8932: Шлюзы №30\/31 (Волжская ГЭС) \nhttps:\/\/russianplanes.net\/id280113" }, "geometry": { "type": "Point", "coordinates": [ 44.697781562936001, 48.819490233764 ] } },
{ "type": "Feature", "properties": { "name": "Шлюз №32 (Наримановский вододелитель)", "cmt": "id8933: Шлюз №32 (Наримановский вододелитель)  ()\nhttps:\/\/russianplanes.net\/id0", "desc": "id8933: Шлюз №32 (Наримановский вододелитель)  ()\nhttps:\/\/russianplanes.net\/id0" }, "geometry": { "type": "Point", "coordinates": [ 47.838251352114, 46.712128291633 ] } },
{ "type": "Feature", "properties": { "name": "Шлюз №33\/34 (Бушма, Астраханский вододелитель)", "cmt": "id8934: Шлюз №33\/34 (Бушма, Астраханский вододелитель) \nhttps:\/\/russianplanes.net\/id0", "desc": "id8934: Шлюз №33\/34 (Бушма, Астраханский вододелитель) \nhttps:\/\/russianplanes.net\/id0" }, "geometry": { "type": "Point", "coordinates": [ 48.324053049055003, 46.344866479578002 ] } },
{ "type": "Feature", "properties": { "name": "Тверецкий шлюз ВВВС", "cmt": "id8935: Тверецкий шлюз ВВВС  ()\nhttps:\/\/russianplanes.net\/id0", "desc": "id8935: Тверецкий шлюз ВВВС  ()\nhttps:\/\/russianplanes.net\/id0" }, "geometry": { "type": "Point", "coordinates": [ 34.604501366648002, 57.576400168343 ] } },
{ "type": "Feature", "properties": { "name": "Цнинский шлюз ВВВС", "cmt": "id8936: Цнинский шлюз ВВВС  ()\nhttps:\/\/russianplanes.net\/id0", "desc": "id8936: Цнинский шлюз ВВВС  ()\nhttps:\/\/russianplanes.net\/id0" }, "geometry": { "type": "Point", "coordinates": [ 34.539608001742003, 57.591106411650003 ] } },
{ "type": "Feature", "properties": { "name": "Мстинский шлюз ВВВС", "cmt": "id8937: Мстинский шлюз ВВВС  ()\nhttps:\/\/russianplanes.net\/id0", "desc": "id8937: Мстинский шлюз ВВВС  ()\nhttps:\/\/russianplanes.net\/id0" }, "geometry": { "type": "Point", "coordinates": [ 34.485078692469003, 57.739580287768 ] } },
{ "type": "Feature", "properties": { "name": "Прутенский шлюз ВВВС", "cmt": "id8938: Прутенский шлюз ВВВС  ()\nhttps:\/\/russianplanes.net\/id0", "desc": "id8938: Прутенский шлюз ВВВС  ()\nhttps:\/\/russianplanes.net\/id0" }, "geometry": { "type": "Point", "coordinates": [ 34.960639715227003, 57.107900126255998 ] } },
{ "type": "Feature", "properties": { "name": "Цнинский полушлюз ВВВС", "cmt": "id8939: Цнинский полушлюз ВВВС  ()\nhttps:\/\/russianplanes.net\/id0", "desc": "id8939: Цнинский полушлюз ВВВС  ()\nhttps:\/\/russianplanes.net\/id0" }, "geometry": { "type": "Point", "coordinates": [ 34.550610423121, 57.586132145204999 ] } },
{ "type": "Feature", "properties": { "name": "Шлюз Волховской ГЭС", "cmt": "id8940: Шлюз Волховской ГЭС \nhttps:\/\/russianplanes.net\/id0", "desc": "id8940: Шлюз Волховской ГЭС \nhttps:\/\/russianplanes.net\/id0" }, "geometry": { "type": "Point", "coordinates": [ 32.342132091326, 59.912754170435001 ] } },
{ "type": "Feature", "properties": { "name": "Нижнесвирский шлюз ВБВП (Свирьстрой)", "cmt": "id8941: Нижнесвирский шлюз ВБВП (Свирьстрой) \nhttps:\/\/russianplanes.net\/id0", "desc": "id8941: Нижнесвирский шлюз ВБВП (Свирьстрой) \nhttps:\/\/russianplanes.net\/id0" }, "geometry": { "type": "Point", "coordinates": [ 33.707801342206999, 60.804762193210003 ] } },
{ "type": "Feature", "properties": { "name": "Верхнесвирский шлюз ВБВП (Подпорожье)", "cmt": "id8942: Верхнесвирский шлюз ВБВП (Подпорожье) \nhttps:\/\/russianplanes.net\/id0", "desc": "id8942: Верхнесвирский шлюз ВБВП (Подпорожье) \nhttps:\/\/russianplanes.net\/id0" }, "geometry": { "type": "Point", "coordinates": [ 34.194652319020001, 60.916999029183003 ] } },
{ "type": "Feature", "properties": { "name": "Шлюз №1 ВБК (Вытегра)", "cmt": "id8943: Шлюз №1 ВБК (Вытегра) \nhttps:\/\/russianplanes.net\/id0", "desc": "id8943: Шлюз №1 ВБК (Вытегра) \nhttps:\/\/russianplanes.net\/id0" }, "geometry": { "type": "Point", "coordinates": [ 36.424488545053002, 61.007759149568002 ] } },
{ "type": "Feature", "properties": { "name": "Шлюз №2 ВБК (Белоусово)", "cmt": "id8944: Шлюз №2 ВБК (Белоусово) \nhttps:\/\/russianplanes.net\/id0", "desc": "id8944: Шлюз №2 ВБК (Белоусово) \nhttps:\/\/russianplanes.net\/id0" }, "geometry": { "type": "Point", "coordinates": [ 36.547443151538999, 60.948685437767999 ] } },
{ "type": "Feature", "properties": { "name": "Шлюз №3 ВБК (Новинский)", "cmt": "id8945: Шлюз №3 ВБК (Новинский) \nhttps:\/\/russianplanes.net\/id0", "desc": "id8945: Шлюз №3 ВБК (Новинский) \nhttps:\/\/russianplanes.net\/id0" }, "geometry": { "type": "Point", "coordinates": [ 36.650500058931001, 60.943568958801002 ] } },
{ "type": "Feature", "properties": { "name": "Шлюз №4 ВБК (Новинский)", "cmt": "id8946: Шлюз №4 ВБК (Новинский) \nhttps:\/\/russianplanes.net\/id0", "desc": "id8946: Шлюз №4 ВБК (Новинский) \nhttps:\/\/russianplanes.net\/id0" }, "geometry": { "type": "Point", "coordinates": [ 36.673120737140998, 60.943277159285998 ] } },
{ "type": "Feature", "properties": { "name": "Шлюз №5 ВБК (Новинский)", "cmt": "id8947: Шлюз №5 ВБК (Новинский) \nhttps:\/\/russianplanes.net\/id0", "desc": "id8947: Шлюз №5 ВБК (Новинский) \nhttps:\/\/russianplanes.net\/id0" }, "geometry": { "type": "Point", "coordinates": [ 36.696005344455997, 60.942413208559003 ] } },
{ "type": "Feature", "properties": { "name": "Шлюз №6 ВБК", "cmt": "id8948: Шлюз №6 ВБК \nhttps:\/\/russianplanes.net\/id0", "desc": "id8948: Шлюз №6 ВБК \nhttps:\/\/russianplanes.net\/id0" }, "geometry": { "type": "Point", "coordinates": [ 36.768019437985998, 60.909056590797 ] } },
{ "type": "Feature", "properties": { "name": "Шлюз №7 ВБК (Шексна)", "cmt": "id8949: Шлюз №7 ВБК (Шексна) \nhttps:\/\/russianplanes.net\/id0", "desc": "id8949: Шлюз №7 ВБК (Шексна) \nhttps:\/\/russianplanes.net\/id0" }, "geometry": { "type": "Point", "coordinates": [ 38.497501373421997, 59.235245271198998 ] } },
{ "type": "Feature", "properties": { "name": "Шлюз №8 ВБК (Шексна)", "cmt": "id8950: Шлюз №8 ВБК (Шексна) \nhttps:\/\/russianplanes.net\/id0", "desc": "id8950: Шлюз №8 ВБК (Шексна) \nhttps:\/\/russianplanes.net\/id0" }, "geometry": { "type": "Point", "coordinates": [ 38.500162124764998, 59.235168439756997 ] } },
{ "type": "Feature", "properties": { "name": "Нижнекамский шлюз", "cmt": "id8951: Нижнекамский шлюз \nhttps:\/\/russianplanes.net\/id0", "desc": "id8951: Нижнекамский шлюз \nhttps:\/\/russianplanes.net\/id0" }, "geometry": { "type": "Point", "coordinates": [ 52.278850078909997, 55.693904829304003 ] } },
{ "type": "Feature", "properties": { "name": "Чайковский шлюз (Воткинская ГЭС)", "cmt": "id8952: Чайковский шлюз (Воткинская ГЭС) \nhttps:\/\/russianplanes.net\/id0", "desc": "id8952: Чайковский шлюз (Воткинская ГЭС) \nhttps:\/\/russianplanes.net\/id0" }, "geometry": { "type": "Point", "coordinates": [ 54.115686893856001, 56.785984473619997 ] } },
{ "type": "Feature", "properties": { "name": "Камский шлюз (Пермь)", "cmt": "id8953: Камский шлюз (Пермь) \nhttps:\/\/russianplanes.net\/id0", "desc": "id8953: Камский шлюз (Пермь) \nhttps:\/\/russianplanes.net\/id0" }, "geometry": { "type": "Point", "coordinates": [ 56.344259260512999, 58.113412670983998 ] } },
{ "type": "Feature", "properties": { "name": "другие типы судов", "cmt": "id8954: другие типы судов  ()\nhttps:\/\/russianplanes.net\/id297664", "desc": "id8954: другие типы судов  ()\nhttps:\/\/russianplanes.net\/id297664" }, "geometry": { "type": "Point", "coordinates": [ 36.433641314507, 60.998277820558002 ] } },
{ "type": "Feature", "properties": { "name": "другие типы судов", "cmt": "id8955: другие типы судов  ()\nhttps:\/\/russianplanes.net\/id0", "desc": "id8955: другие типы судов  ()\nhttps:\/\/russianplanes.net\/id0" }, "geometry": { "type": "Point", "coordinates": [ 49.246757626533999, 53.552610679771 ] } },
{ "type": "Feature", "properties": { "name": "Шлюз №1 ВДСК (Волгоград)", "cmt": "id8956: Шлюз №1 ВДСК (Волгоград)  ()\nhttps:\/\/russianplanes.net\/id270989", "desc": "id8956: Шлюз №1 ВДСК (Волгоград)  ()\nhttps:\/\/russianplanes.net\/id270989" }, "geometry": { "type": "Point", "coordinates": [ 44.553568840091998, 48.518938172638002 ] } },
{ "type": "Feature", "properties": { "name": "Шлюз №2 ВДСК (Волгоград)", "cmt": "id8957: Шлюз №2 ВДСК (Волгоград)  ()\nhttps:\/\/russianplanes.net\/id0", "desc": "id8957: Шлюз №2 ВДСК (Волгоград)  ()\nhttps:\/\/russianplanes.net\/id0" }, "geometry": { "type": "Point", "coordinates": [ 44.559115648335002, 48.506466176775 ] } },
{ "type": "Feature", "properties": { "name": "Шлюз №3 ВДСК (Волгоград)", "cmt": "id8958: Шлюз №3 ВДСК (Волгоград)  ()\nhttps:\/\/russianplanes.net\/id0", "desc": "id8958: Шлюз №3 ВДСК (Волгоград)  ()\nhttps:\/\/russianplanes.net\/id0" }, "geometry": { "type": "Point", "coordinates": [ 44.557201624210997, 48.492464574322 ] } },
{ "type": "Feature", "properties": { "name": "Шлюз №4 ВДСК (пос. Имени XIX партсъезда)", "cmt": "id8959: Шлюз №4 ВДСК (пос. Имени XIX партсъезда)  ()\nhttps:\/\/russianplanes.net\/id0", "desc": "id8959: Шлюз №4 ВДСК (пос. Имени XIX партсъезда)  ()\nhttps:\/\/russianplanes.net\/id0" }, "geometry": { "type": "Point", "coordinates": [ 44.509532332649997, 48.430346712107998 ] } },
{ "type": "Feature", "properties": { "name": "Шлюз №5 ВДСК (Южный, Волгоград)", "cmt": "id8960: Шлюз №5 ВДСК (Южный, Волгоград)  ()\nhttps:\/\/russianplanes.net\/id0", "desc": "id8960: Шлюз №5 ВДСК (Южный, Волгоград)  ()\nhttps:\/\/russianplanes.net\/id0" }, "geometry": { "type": "Point", "coordinates": [ 44.487534999879998, 48.422097367391999 ] } },
{ "type": "Feature", "properties": { "name": "Шлюз №6 ВДСК", "cmt": "id8961: Шлюз №6 ВДСК  ()\nhttps:\/\/russianplanes.net\/id0", "desc": "id8961: Шлюз №6 ВДСК  ()\nhttps:\/\/russianplanes.net\/id0" }, "geometry": { "type": "Point", "coordinates": [ 44.452038645777002, 48.428946404309997 ] } },
{ "type": "Feature", "properties": { "name": "Шлюз №7 ВДСК (Солянка)", "cmt": "id8962: Шлюз №7 ВДСК (Солянка)  ()\nhttps:\/\/russianplanes.net\/id0", "desc": "id8962: Шлюз №7 ВДСК (Солянка)  ()\nhttps:\/\/russianplanes.net\/id0" }, "geometry": { "type": "Point", "coordinates": [ 44.435641765431001, 48.434103219561997 ] } },
{ "type": "Feature", "properties": { "name": "Шлюз №8 ВДСК (Солянка)", "cmt": "id8963: Шлюз №8 ВДСК (Солянка)  ()\nhttps:\/\/russianplanes.net\/id0", "desc": "id8963: Шлюз №8 ВДСК (Солянка)  ()\nhttps:\/\/russianplanes.net\/id0" }, "geometry": { "type": "Point", "coordinates": [ 44.423150181738002, 48.440673058521 ] } },
{ "type": "Feature", "properties": { "name": "Шлюз №9 ВДСК (Солянка)", "cmt": "id8964: Шлюз №9 ВДСК (Солянка) \nhttps:\/\/russianplanes.net\/id0", "desc": "id8964: Шлюз №9 ВДСК (Солянка) \nhttps:\/\/russianplanes.net\/id0" }, "geometry": { "type": "Point", "coordinates": [ 44.409421563050003, 48.446785164003998 ] } },
{ "type": "Feature", "properties": { "name": "Шлюз №10 ВДСК (Пархоменко)", "cmt": "id8965: Шлюз №10 ВДСК (Пархоменко)  ()\nhttps:\/\/russianplanes.net\/id0", "desc": "id8965: Шлюз №10 ВДСК (Пархоменко)  ()\nhttps:\/\/russianplanes.net\/id0" }, "geometry": { "type": "Point", "coordinates": [ 44.151423096755003, 48.571076472418 ] } },
{ "type": "Feature", "properties": { "name": "Шлюз №11 ВДСК (Комсомольский)", "cmt": "id8966: Шлюз №11 ВДСК (Комсомольский)  ()\nhttps:\/\/russianplanes.net\/id0", "desc": "id8966: Шлюз №11 ВДСК (Комсомольский)  ()\nhttps:\/\/russianplanes.net\/id0" }, "geometry": { "type": "Point", "coordinates": [ 43.866911530331002, 48.663650640317002 ] } },
{ "type": "Feature", "properties": { "name": "Шлюз №12 ВДСК (Октябрьский)", "cmt": "id8967: Шлюз №12 ВДСК (Октябрьский) \nhttps:\/\/russianplanes.net\/id0", "desc": "id8967: Шлюз №12 ВДСК (Октябрьский) \nhttps:\/\/russianplanes.net\/id0" }, "geometry": { "type": "Point", "coordinates": [ 43.794049859079998, 48.664194854301002 ] } },
{ "type": "Feature", "properties": { "name": "Шлюз №13 ВДСК (Пятиморск)", "cmt": "id8968: Шлюз №13 ВДСК (Пятиморск)  ()\nhttps:\/\/russianplanes.net\/id0", "desc": "id8968: Шлюз №13 ВДСК (Пятиморск)  ()\nhttps:\/\/russianplanes.net\/id0" }, "geometry": { "type": "Point", "coordinates": [ 43.599082231357997, 48.638741588957998 ] } },
{ "type": "Feature", "properties": { "name": "Шлюз №14 ВДСК (Волгодонск)", "cmt": "id8969: Шлюз №14 ВДСК (Волгодонск)  ()\nhttps:\/\/russianplanes.net\/id0", "desc": "id8969: Шлюз №14 ВДСК (Волгодонск)  ()\nhttps:\/\/russianplanes.net\/id0" }, "geometry": { "type": "Point", "coordinates": [ 42.134834289845003, 47.551552504345999 ] } },
{ "type": "Feature", "properties": { "name": "Шлюз №15 ВДСК", "cmt": "id8970: Шлюз №15 ВДСК  ()\nhttps:\/\/russianplanes.net\/id0", "desc": "id8970: Шлюз №15 ВДСК  ()\nhttps:\/\/russianplanes.net\/id0" }, "geometry": { "type": "Point", "coordinates": [ 42.111834883526001, 47.554844239586998 ] } },
{ "type": "Feature", "properties": { "name": "Николаевский шлюз", "cmt": "id8971: Николаевский шлюз  ()\nhttps:\/\/russianplanes.net\/id0", "desc": "id8971: Николаевский шлюз  ()\nhttps:\/\/russianplanes.net\/id0" }, "geometry": { "type": "Point", "coordinates": [ 41.543300986322997, 47.588971673956003 ] } },
{ "type": "Feature", "properties": { "name": "Константиновский шлюз (основной)", "cmt": "id8972: Константиновский шлюз (основной) \nhttps:\/\/russianplanes.net\/id0", "desc": "id8972: Константиновский шлюз (основной) \nhttps:\/\/russianplanes.net\/id0" }, "geometry": { "type": "Point", "coordinates": [ 41.122408747705997, 47.569318614875002 ] } },
{ "type": "Feature", "properties": { "name": "Константиновский шлюз (малый)", "cmt": "id8973: Константиновский шлюз (малый) \nhttps:\/\/russianplanes.net\/id0", "desc": "id8973: Константиновский шлюз (малый) \nhttps:\/\/russianplanes.net\/id0" }, "geometry": { "type": "Point", "coordinates": [ 41.123138308557998, 47.568985632637002 ] } },
{ "type": "Feature", "properties": { "name": "Кочетовский шлюз (старый)\/№1 СДШС", "cmt": "id8974: Кочетовский шлюз (старый)\/№1 СДШС  ()\nhttps:\/\/russianplanes.net\/id0", "desc": "id8974: Кочетовский шлюз (старый)\/№1 СДШС  ()\nhttps:\/\/russianplanes.net\/id0" }, "geometry": { "type": "Point", "coordinates": [ 40.851221323045998, 47.567823797594997 ] } },
{ "type": "Feature", "properties": { "name": "Кочетовский шлюз (новый)", "cmt": "id8975: Кочетовский шлюз (новый)  ()\nhttps:\/\/russianplanes.net\/id0", "desc": "id8975: Кочетовский шлюз (новый)  ()\nhttps:\/\/russianplanes.net\/id0" }, "geometry": { "type": "Point", "coordinates": [ 40.850663423571, 47.567473432466997 ] } },
{ "type": "Feature", "properties": { "name": "Шлюз №2 СДШС (Апаринский)", "cmt": "id8976: Шлюз №2 СДШС (Апаринский) \nhttps:\/\/russianplanes.net\/id0", "desc": "id8976: Шлюз №2 СДШС (Апаринский) \nhttps:\/\/russianplanes.net\/id0" }, "geometry": { "type": "Point", "coordinates": [ 40.930286407765003, 47.654610232632002 ] } },
{ "type": "Feature", "properties": { "name": "Шлюз №3 СДШС (Нижнежуравский)", "cmt": "id8977: Шлюз №3 СДШС (Нижнежуравский) \nhttps:\/\/russianplanes.net\/id0", "desc": "id8977: Шлюз №3 СДШС (Нижнежуравский) \nhttps:\/\/russianplanes.net\/id0" }, "geometry": { "type": "Point", "coordinates": [ 41.050820589098002, 47.712037734730998 ] } },
{ "type": "Feature", "properties": { "name": "Шлюз №4 СДШС (Краснодонецкий)", "cmt": "id8978: Шлюз №4 СДШС (Краснодонецкий) \nhttps:\/\/russianplanes.net\/id0", "desc": "id8978: Шлюз №4 СДШС (Краснодонецкий) \nhttps:\/\/russianplanes.net\/id0" }, "geometry": { "type": "Point", "coordinates": [ 40.922525167498002, 47.991435272491003 ] } },
{ "type": "Feature", "properties": { "name": "Шлюз №5 СДШС (Дядинский)", "cmt": "id8979: Шлюз №5 СДШС (Дядинский) \nhttps:\/\/russianplanes.net\/id0", "desc": "id8979: Шлюз №5 СДШС (Дядинский) \nhttps:\/\/russianplanes.net\/id0" }, "geometry": { "type": "Point", "coordinates": [ 40.740104913875001, 48.257820678083 ] } },
{ "type": "Feature", "properties": { "name": "Шлюз №6 СДШС (Нижнесазоновский)", "cmt": "id8980: Шлюз №6 СДШС (Нижнесазоновский) \nhttps:\/\/russianplanes.net\/id0", "desc": "id8980: Шлюз №6 СДШС (Нижнесазоновский) \nhttps:\/\/russianplanes.net\/id0" }, "geometry": { "type": "Point", "coordinates": [ 40.472609281441997, 48.237160254609002 ] } },
{ "type": "Feature", "properties": { "name": "Шлюз №7 СДШС (Верхнекрасный)", "cmt": "id8981: Шлюз №7 СДШС (Верхнекрасный) \nhttps:\/\/russianplanes.net\/id0", "desc": "id8981: Шлюз №7 СДШС (Верхнекрасный) \nhttps:\/\/russianplanes.net\/id0" }, "geometry": { "type": "Point", "coordinates": [ 40.148432135810999, 48.356211957294001 ] } },
{ "type": "Feature", "properties": { "name": "Сыромятнический шлюз (Яуза)", "cmt": "id8982: Сыромятнический шлюз (Яуза) \nhttps:\/\/russianplanes.net\/id238703", "desc": "id8982: Сыромятнический шлюз (Яуза) \nhttps:\/\/russianplanes.net\/id238703" }, "geometry": { "type": "Point", "coordinates": [ 37.671560168036997, 55.756319034245998 ] } },
{ "type": "Feature", "properties": { "name": "Шлюз №1 ББК (Повенец)", "cmt": "id8983: Шлюз №1 ББК (Повенец) \nhttps:\/\/russianplanes.net\/id0", "desc": "id8983: Шлюз №1 ББК (Повенец) \nhttps:\/\/russianplanes.net\/id0" }, "geometry": { "type": "Point", "coordinates": [ 34.839036941594003, 62.837173647156 ] } },
{ "type": "Feature", "properties": { "name": "Шлюз №2 ББК (Повенец)", "cmt": "id8984: Шлюз №2 ББК (Повенец) \nhttps:\/\/russianplanes.net\/id0", "desc": "id8984: Шлюз №2 ББК (Повенец) \nhttps:\/\/russianplanes.net\/id0" }, "geometry": { "type": "Point", "coordinates": [ 34.840856552254998, 62.846995307714003 ] } },
{ "type": "Feature", "properties": { "name": "Шлюз №3 ББК (Повенец)", "cmt": "id8985: Шлюз №3 ББК (Повенец) \nhttps:\/\/russianplanes.net\/id0", "desc": "id8985: Шлюз №3 ББК (Повенец) \nhttps:\/\/russianplanes.net\/id0" }, "geometry": { "type": "Point", "coordinates": [ 34.843791961211998, 62.858520895957 ] } },
{ "type": "Feature", "properties": { "name": "Шлюз №4 ББК (Повенец)", "cmt": "id8986: Шлюз №4 ББК (Повенец) \nhttps:\/\/russianplanes.net\/id0", "desc": "id8986: Шлюз №4 ББК (Повенец) \nhttps:\/\/russianplanes.net\/id0" }, "geometry": { "type": "Point", "coordinates": [ 34.847873211364998, 62.866663036417997 ] } },
{ "type": "Feature", "properties": { "name": "Шлюз №5 ББК (Повенец)", "cmt": "id8987: Шлюз №5 ББК (Повенец) \nhttps:\/\/russianplanes.net\/id0", "desc": "id8987: Шлюз №5 ББК (Повенец) \nhttps:\/\/russianplanes.net\/id0" }, "geometry": { "type": "Point", "coordinates": [ 34.854301930391003, 62.874695302950997 ] } },
{ "type": "Feature", "properties": { "name": "Шлюз №6 ББК", "cmt": "id8988: Шлюз №6 ББК \nhttps:\/\/russianplanes.net\/id0", "desc": "id8988: Шлюз №6 ББК \nhttps:\/\/russianplanes.net\/id0" }, "geometry": { "type": "Point", "coordinates": [ 34.898021936351, 62.905569060216997 ] } },
{ "type": "Feature", "properties": { "name": "Шлюз №7 ББК", "cmt": "id8989: Шлюз №7 ББК \nhttps:\/\/russianplanes.net\/id0", "desc": "id8989: Шлюз №7 ББК \nhttps:\/\/russianplanes.net\/id0" }, "geometry": { "type": "Point", "coordinates": [ 34.906452655922998, 62.914857874726998 ] } },
{ "type": "Feature", "properties": { "name": "Шлюз №8 ББК", "cmt": "id8990: Шлюз №8 ББК \nhttps:\/\/russianplanes.net\/id0", "desc": "id8990: Шлюз №8 ББК \nhttps:\/\/russianplanes.net\/id0" }, "geometry": { "type": "Point", "coordinates": [ 34.9721217162, 63.097115941477 ] } },
{ "type": "Feature", "properties": { "name": "Шлюз №9 ББК", "cmt": "id8991: Шлюз №9 ББК \nhttps:\/\/russianplanes.net\/id0", "desc": "id8991: Шлюз №9 ББК \nhttps:\/\/russianplanes.net\/id0" }, "geometry": { "type": "Point", "coordinates": [ 34.886758804387, 63.191524624016999 ] } },
{ "type": "Feature", "properties": { "name": "Шлюз №10 ББК (Надвоицы)", "cmt": "id8992: Шлюз №10 ББК (Надвоицы) \nhttps:\/\/russianplanes.net\/id0", "desc": "id8992: Шлюз №10 ББК (Надвоицы) \nhttps:\/\/russianplanes.net\/id0" }, "geometry": { "type": "Point", "coordinates": [ 34.311688900124999, 63.879310662336003 ] } },
{ "type": "Feature", "properties": { "name": "Шлюз №11 ББК (Шавань)", "cmt": "id8993: Шлюз №11 ББК (Шавань) \nhttps:\/\/russianplanes.net\/id0", "desc": "id8993: Шлюз №11 ББК (Шавань) \nhttps:\/\/russianplanes.net\/id0" }, "geometry": { "type": "Point", "coordinates": [ 34.255512714517003, 63.954125780738998 ] } },
{ "type": "Feature", "properties": { "name": "Шлюз №12 ББК (Тунгуда)", "cmt": "id8994: Шлюз №12 ББК (Тунгуда) \nhttps:\/\/russianplanes.net\/id0", "desc": "id8994: Шлюз №12 ББК (Тунгуда) \nhttps:\/\/russianplanes.net\/id0" }, "geometry": { "type": "Point", "coordinates": [ 34.335376024574003, 64.227584412249996 ] } },
{ "type": "Feature", "properties": { "name": "Шлюз №13 ББК (Летнереченский)", "cmt": "id8995: Шлюз №13 ББК (Летнереченский) \nhttps:\/\/russianplanes.net\/id0", "desc": "id8995: Шлюз №13 ББК (Летнереченский) \nhttps:\/\/russianplanes.net\/id0" }, "geometry": { "type": "Point", "coordinates": [ 34.405287265909003, 64.263946494454999 ] } },
{ "type": "Feature", "properties": { "name": "Шлюз №14 ББК (Сосновец)", "cmt": "id8996: Шлюз №14 ББК (Сосновец) \nhttps:\/\/russianplanes.net\/id0", "desc": "id8996: Шлюз №14 ББК (Сосновец) \nhttps:\/\/russianplanes.net\/id0" }, "geometry": { "type": "Point", "coordinates": [ 34.489122390878002, 64.413412081272 ] } },
{ "type": "Feature", "properties": { "name": "Шлюз №15 ББК (Сосновец)", "cmt": "id8997: Шлюз №15 ББК (Сосновец) \nhttps:\/\/russianplanes.net\/id0", "desc": "id8997: Шлюз №15 ББК (Сосновец) \nhttps:\/\/russianplanes.net\/id0" }, "geometry": { "type": "Point", "coordinates": [ 34.498387813436999, 64.428031548516998 ] } },
{ "type": "Feature", "properties": { "name": "Шлюз №16 ББК (Выгостров)", "cmt": "id8998: Шлюз №16 ББК (Выгостров) \nhttps:\/\/russianplanes.net\/id0", "desc": "id8998: Шлюз №16 ББК (Выгостров) \nhttps:\/\/russianplanes.net\/id0" }, "geometry": { "type": "Point", "coordinates": [ 34.667871236342997, 64.475967193127005 ] } },
{ "type": "Feature", "properties": { "name": "Шлюз №17 ББК (Выгостров)", "cmt": "id8999: Шлюз №17 ББК (Выгостров) \nhttps:\/\/russianplanes.net\/id0", "desc": "id8999: Шлюз №17 ББК (Выгостров) \nhttps:\/\/russianplanes.net\/id0" }, "geometry": { "type": "Point", "coordinates": [ 34.693998098537001, 64.475668087073998 ] } },
{ "type": "Feature", "properties": { "name": "Шлюз №18 ББК (Шижня)", "cmt": "id9000: Шлюз №18 ББК (Шижня) \nhttps:\/\/russianplanes.net\/id0", "desc": "id9000: Шлюз №18 ББК (Шижня) \nhttps:\/\/russianplanes.net\/id0" }, "geometry": { "type": "Point", "coordinates": [ 34.745496511132004, 64.480098868907007 ] } },
{ "type": "Feature", "properties": { "name": "Шлюз №19 ББК (Беломорск)", "cmt": "id9001: Шлюз №19 ББК (Беломорск) \nhttps:\/\/russianplanes.net\/id0", "desc": "id9001: Шлюз №19 ББК (Беломорск) \nhttps:\/\/russianplanes.net\/id0" }, "geometry": { "type": "Point", "coordinates": [ 34.808588504856999, 64.510022625347005 ] } },
{ "type": "Feature", "properties": { "name": "Краснодарский шлюз", "cmt": "id9002: Краснодарский шлюз \nhttps:\/\/russianplanes.net\/id0", "desc": "id9002: Краснодарский шлюз \nhttps:\/\/russianplanes.net\/id0" }, "geometry": { "type": "Point", "coordinates": [ 39.114719509979999, 44.991628441670997 ] } },
{ "type": "Feature", "properties": { "name": "Тиховские шлюзы", "cmt": "id9003: Тиховские шлюзы \nhttps:\/\/russianplanes.net\/id0", "desc": "id9003: Тиховские шлюзы \nhttps:\/\/russianplanes.net\/id0" }, "geometry": { "type": "Point", "coordinates": [ 38.217418670720001, 45.184015098096999 ] } },
{ "type": "Feature", "properties": { "name": "Фёдоровский шлюз", "cmt": "id9004: Фёдоровский шлюз \nhttps:\/\/russianplanes.net\/id0", "desc": "id9004: Фёдоровский шлюз \nhttps:\/\/russianplanes.net\/id0" },